시도,시군구,어린이집명,어린이집유형구분,운영현황,우편번호,주소,어린이집전화번호,어린이집팩스번호,보육실수,보육실면적,놀이터수,CCTV설치수,보육교직원수,정원수,현원수,위도,경도,통학차량운영여부,홈페이지주소,인가일자,휴지시작일자,휴지종료일자,폐지일자
서울특별시,관악구,구립동산어린이집,국공립,정상,08820,서울특별시 관악구 대학14길 56 (신림동)  [대학동],02-871-6472,02-871-6476,5,177,1,16,12,53,22,37.465944591,126.9351567107,미운영,http://iseoul.seoul.go.kr/homepage/main.do?stCode=11620000004,1995-07-01,,,
서울특별시,관악구,구립우리꿈어린이집,국공립,정상,08715,서울특별시 관악구 양녕로 117 벽산블루밍아파트 506동,02-887-3788,02-887-3755,3,118,1,13,11,52,28,37.49156973549459,126.9430035859669,미운영,,2003-12-19,,,
서울특별시,관악구,구립새빛어린이집,국공립,정상,08705,서울특별시 관악구 신사로10길 29 (신림동)  [신사동],02-862-1255,02-863-1256,6,435,2,16,20,96,75,37.4863452026,126.9151665725,미운영,,1983-10-10,,,
서울특별시,관악구,구립미림어린이집,국공립,폐지,08848,서울특별시 관악구 태흥길 4 (신림동)  [삼성동],02-878-6150,02-883-4678,6,325,1,16,0,99,0,37.46637006,126.9309247,미운영,http://cafe.daum.net/mirim878,1983-03-02,,,2023-02-28
서울특별시,관악구,구립청룡어린이집,국공립,정상,08830,서울특별시 관악구 참숯1길 7 (봉천동)  [청룡동],02-886-1245,02-886-1284,6,231,1,16,19,79,66,37.47885648,126.9422057,미운영,,1982-10-16,,,
서울특별시,관악구,구립문성어린이집,국공립,정상,08769,서울특별시 관악구 시흥대로164길 27 (신림동)  [조원동],02-856-5621,02-865-3888,7,350,1,16,23,114,88,37.482014516854875,126.90289288460595,미운영,http://iseoul.seoul.go.kr/homepage/main.do?stCode=11620000009,1983-07-28,,,
서울특별시,관악구,선의어린이집,사회복지법인,폐지,08724,서울특별시 관악구 양녕로16길 44-9 선의관악복지관 1층 (봉천동)  [성현동],02-885-9770,070-4804-3515,4,106,0,4,0,40,0,37.491588976,126.9455919022,미운영,,1994-03-14,,,2018-03-01
서울특별시,관악구,구립당곡어린이집,국공립,정상,08719,서울특별시 관악구 봉천로23길 6 (봉천동)  [보라매동],02-884-2267,02-884-2270,5,212,2,20,15,79,64,37.48672202832664,126.93544178309531,미운영,http://iseoul.seoul.go.kr/homepage/main.do?stCode=11620000011,1991-07-01,,,
서울특별시,관악구,구립원광어린이집,국공립,폐지,08755,서울특별시 관악구 신림로64길 57 (신림동)  [신림동],02-872-9629,02-884-4977,3,211,1,8,0,49,0,37.485491650520814,126.93292369282702,미운영,http://iseoul.seoul.go.kr/homepage/main.do?stCode=11620000012,1992-11-18,,,2023-02-28
서울특별시,관악구,구립새들어린이집,국공립,정상,08707,서울특별시 관악구 관천로16길 55 (신림동)  [신림동],02-888-2601,02-875-2608,6,225,4,13,16,88,58,37.4877511324,126.9264540039,미운영,http://iseoul.seoul.go.kr/homepage/main.do?stCode=11620000013,1998-06-01,,,
서울특별시,관악구,구립비안어린이집,국공립,정상,08782,서울특별시 관악구 장군봉6길 8 (봉천동)  [청룡동],02-889-0351,070-8230-3262,6,243,1,10,10,63,23,37.48161359062606,126.93937168718102,미운영,http://iseoul.seoul.go.kr/homepage/main.do?stCode=11620000014,1982-12-01,,,
서울특별시,관악구,구립청능어린이집,국공립,정상,08832,서울특별시 관악구 관악로11길 79-11 (봉천동)  [청룡동],02-875-7003,02-877-8521,5,159,1,8,11,79,25,37.4782045662,126.9477406412,미운영,cafe daum net/chingnoing2,2000-03-01,,,
서울특별시,관악구,구립서원어린이집,국공립,정상,08844,서울특별시 관악구 서원3길 25 (신림동)  [서원동],02-889-5845,02-889-5859,6,250,2,15,15,75,56,37.4769255924,126.934229219,미운영,http://iseoul.seoul.go.kr/homepage/main.do?stCode=11620000016,1982-11-16,,,
서울특별시,관악구,구립상록어린이집,국공립,정상,08775,서울특별시 관악구 신원로2길 4-7 (신림동)  [신원동],02-852-3851,02-852-3851,4,196,1,11,11,54,36,37.48001452883674,126.92850117997631,미운영,evergreen3851@hanmail.net,1994-09-01,,,
서울특별시,관악구,구립중앙어린이집,국공립,정상,08748,서울특별시 관악구 봉천로41길 35 (봉천동)  [중앙동],02-884-5861,02-887-7679,5,210,1,16,20,79,65,37.4844866409245,126.94828802903748,미운영,http://www.chungang02.com,1981-03-16,,,
서울특별시,관악구,청진어린이집,사회복지법인,폐지,08828,서울특별시 관악구 신림로36길 23-11 (신림동)  [서림동],02-872-6677,02-872-6677,4,105,0,7,0,30,0,37.4765423701,126.9387110252,미운영,,1996-01-30,,,2023-03-31
서울특별시,관악구,구립구암어린이집,국공립,정상,08725,서울특별시 관악구 구암길 76 1층 구암어린이집 (봉천동)  [성현동],02-883-6647,02-882-0070,6,184,1,9,13,79,53,37.4917446596,126.9471567771,미운영,http://iseoul.seoul.go.kr/homepage/main.do?stCode=11620000021,1982-10-08,,,
서울특별시,관악구,구립금강어린이집,국공립,정상,08781,서울특별시 관악구 신림로48길 25 (신림동)  [서원동],02-876-8854,02-876-8853,4,110,1,6,8,54,24,37.479419164677864,126.9334763246171,미운영,,1998-11-02,,,
서울특별시,관악구,구립복은어린이집,국공립,정상,08837,서울특별시 관악구 복은2길 6-24 (신림동) [서림동],02-877-2246,02-877-2263,7,315,1,16,14,87,52,37.47326163968369,126.93671047046116,미운영,,1997-06-10,,,
서울특별시,관악구,구립양지어린이집,국공립,폐지,08846,서울특별시 관악구 양지12길 18-1 (신림동),02-882-4359,02-882-4357,6,296,2,16,0,85,0,37.46870578,126.9284609,미운영,,1985-08-19,,,2024-02-29
서울특별시,관악구,구립미래클어린이집,국공립,정상,08852,서울특별시 관악구 법원단지2길 15-4 (신림동) [난곡동],02-863-7001,02-863-7011,7,327,1,13,15,79,73,37.473683870760894,126.9198204540741,미운영,http://iseoul.seoul.go.kr/homepage/main.do?stCode=11620000025,1999-03-02,,,
서울특별시,관악구,구립선봉어린이집,국공립,정상,08749,서울특별시 관악구 봉천로27길 20 (봉천동)  [은천동],02-877-3121,02-872-7236,10,387,2,23,30,162,133,37.48519255706962,126.93968538354534,미운영,,1983-07-29,,,
서울특별시,관악구,구립예지어린이집,국공립,정상,08865,서울특별시 관악구 미성7길 20 (미성동),02-837-4745,02-851-7387,7,215,1,10,12,64,55,37.471058603,126.9229433273,운영,,1992-06-09,,,
서울특별시,관악구,구립난향어린이집,국공립,정상,08859,서울특별시 관악구 난향5길 6 ,02-866-4070,02-862-6875,5,230,1,16,10,79,38,37.462733924167146,126.9185571308582,미운영,http://iseoul.seoul.go.kr/homepage/main.do?stCode=11620000029,1990-02-06,,,
서울특별시,관악구,구립원당어린이집,국공립,정상,08740,서울특별시 관악구 행운1길 6-3 (봉천동)  [행운동],02-879-1798,02-886-8394,4,139,1,8,11,65,33,37.4800506112,126.9588237129,미운영,http://iseoul.seoul.go.kr/homepage/main.do?stCode=11620000030,1996-03-02,,,
서울특별시,관악구,구립도담어린이집,국공립,정상,08732,서울특별시 관악구 청림3길 37 (봉천동)  [청림동],02-886-2240,02-887-6070,7,353,5,16,12,68,30,37.489709260635635,126.95836611532962,미운영,http://iseoul.seoul.go.kr/homepage/main.do?stCode=11620000031,1981-08-20,,,
서울특별시,관악구,구립합실어린이집,국공립,정상,08847,서울특별시 관악구 광신길 113 (신림동)  [삼성동],02-878-0254,02-871-5941,4,199,1,16,13,85,58,37.46405032692235,126.92541921398903,미운영,,1981-09-30,,,
서울특별시,관악구,구립다원어린이집,국공립,정상,08866,서울특별시 관악구 미성길 127 다원어린이집,02-851-7227,02-858-3689,6,306,4,27,14,105,63,37.471789996507944,126.91227997627632,미운영,http://iseoul.seoul.go.kr/homepage/main.do?stCode=11620000033,1991-08-30,,,
서울특별시,관악구,사랑어린이집,가정,정상,08710,"서울특별시 관악구 당곡2가길 29 1,2층 (봉천동)  [보라매동]",02-872-8856,02-873-2170,3,85,1,7,4,20,6,37.4917644785,126.9298423844,미운영,,1997-08-21,,,
서울특별시,관악구,온터방과후교실어린이집,법인·단체등,폐지,08813,서울특별시 관악구 신림로23길 17 (대학동) (신림동),02-876-6187,02-876-0695,3,127,0,3,0,60,0,37.47016439,126.9352186,미운영,,1998-03-05,,,2022-04-01
서울특별시,관악구,성혜어린이집,사회복지법인,재개,08857,서울특별시 관악구 난곡로16길 30-6 (신림동)  [난곡동],02-863-3932,02-869-3084,6,291,0,14,1,52,0,37.4659834881,126.9219944929,미운영,,1995-02-14,,,
서울특별시,관악구,구립율곡어린이집,국공립,폐지,08823,서울특별시 관악구 신우길 1 (신림동)  [삼성동],02-889-7682,02-886-2496,4,150,1,8,0,59,0,37.46194166,126.9325477,미운영,www.yulgokhouse.co.kr,1982-02-18,,,2022-03-26
서울특별시,관악구,구립난우어린이집,국공립,정상,08771,서울특별시 관악구 난곡로61길 1 (신림동)  [미성동],02-862-4547,02-862-4544,6,306,1,20,14,99,78,37.48040128289675,126.91396581144143,미운영,http://iseoul.seoul.go.kr/homepage/main.do?stCode=11620000040,1983-03-02,,,
서울특별시,관악구,크레용어린이집,민간,정상,08851,"서울특별시 관악구 법원단지5가길 21 1,2층 (신림동)  [미성동]",02-3281-0550,02-3281-0550,5,221,1,12,8,38,14,37.4752052325,126.9204971422,운영,,2001-08-30,,,
서울특별시,관악구,신광방과후교실,법인·단체등,폐지,151894,서울 관악구 신림11동 1480-5 ,02-865-8044,--,0,0,0,0,0,51,0,,,,,2004-01-27,,,2015-04-01
서울특별시,관악구,구립하난곡어린이집,국공립,정상,08850,서울특별시 관악구 난우10가길 2 (신림동)  [미성동],02-866-5363,02-862-0053,6,229,1,11,13,83,57,37.4763833889,126.9199577571,미운영,,1995-08-15,,,
서울특별시,관악구,관악여성인력개발센터방과후교실어린이집,법인·단체등,폐지,08785,서울특별시 관악구 쑥고개로 75 (청룡동) (봉천동),02-886-9523,02-886-9526,1,108,0,0,0,20,0,37.47966108,126.9449226,,,1998-11-22,,,2012-03-21
서울특별시,관악구,아이사랑어린이집,민간,정상,08859,서울특별시 관악구 난곡로9길 6 (신림동)  [난향동],02-853-9414,02-853-9414,4,226,0,6,9,49,20,37.4647270969,126.918753913,운영,,2000-02-02,,,
서울특별시,관악구,큰솔아이어린이집,민간,재개,08735,서울특별시 관악구 관악로30길 12 (봉천동)  [행운동],02-889-8381,02-889-2970,9,486,1,16,7,78,40,37.48540493365275,126.96036980074491,운영,,1999-01-15,,,
서울특별시,관악구,대우어린이집,민간,폐지,151050,서울특별시 관악구 청림5길 28 (봉천동)  [청림동],02-885-1174,02-882-3226,2,55,1,0,0,23,0,37.48978281,126.9601986,운영,,2004-05-14,,,2015-04-30
서울특별시,관악구,당곡1어린이집,민간,정상,08710,서울특별시 관악구 당곡2가길 11 당곡1어린이집 [보라매동] (봉천동),02-882-1237,--,6,238,1,7,10,55,21,37.49120087,126.9296097,미운영,,1998-02-06,,,
서울특별시,관악구,꿈동산어린이집,민간,정상,08718,서울특별시 관악구 봉천로21길 66 보라매동] (봉천동),02-888-2611,02-6404-8885,7,212,1,12,12,60,35,37.48978184,126.9344064,운영,,2002-07-02,,,
서울특별시,관악구,색동어린이집,민간,폐지,08720,"서울특별시 관악구 봉천로17길 5-16 1,2,3층 [보라매동] (봉천동)",02-876-8506,02-876-8502,6,186,0,0,0,49,0,37.48849735,126.931557,미운영,,1996-12-09,,,2015-05-31
서울특별시,관악구,봉일어린이집,민간,폐지,08724,서울특별시 관악구 구암5길 14 봉일교회 [성현동] (봉천동),02-889-3596,02-887-3596,6,177,2,9,0,51,0,37.49033219,126.9473496,미운영,http://cafe.naver.com/bongil3596/,1994-06-15,,,2021-10-29
서울특별시,관악구,엔젤어린이집,민간,폐지,08831,서울특별시 관악구 청룡9길 12-43 청룡동] (봉천동),02-886-7763,02-886-1063,5,103,0,9,0,29,0,37.47784056,126.9464926,미운영,cafe.naver.com/angeleducare,2003-09-16,,,2018-03-15
서울특별시,관악구,꾸러기어린이집,민간,정상,08843,서울특별시 관악구 문성로 242 (신림동)  [신원동],02-864-6636,02-864-6637,4,164,2,13,9,62,35,37.4785704691,126.9304426191,운영,,2000-01-03,,,
서울특별시,관악구,24시간연세어린이집,민간,정상,08735,서울특별시 관악구 관악로 246 (봉천동)  [행운동],02-876-0333,02-877-8282,3,171,1,4,14,42,12,37.486090331,126.9570203455,미운영,https://24kids.kidsnote.ac,1995-06-12,,,
서울특별시,관악구,씩씩이어린이집,민간,폐지,151811,서울 관악구 봉천10동 44-14 2층 ,02-872-1781,02-872-1781,0,0,0,0,0,35,0,,,,,2003-03-05,,,2008-04-03
서울특별시,관악구,서울선교어린이집,민간,정상,08792,서울특별시 관악구 낙성대로3길 26 1층 (봉천동)   [낙성대동],02-888-7623,02-889-3132,5,372,1,14,15,79,59,37.4741223334,126.9598851191,운영,,1998-10-14,,,
서울특별시,관악구,풀어린이집,민간,폐지,151815,서울 관악구 봉천11동 180-241 ,02-887-8451,02-872-7897,0,0,0,0,0,27,0,,,,,2003-11-18,,,2015-04-01
서울특별시,관악구,행복한우리어린이집,민간,폐지,151050,서울특별시 관악구 낙성대역14길 34-8 (봉천동)  [인헌동],02-872-3217,02-872-3216,3,93,0,0,0,25,0,37.47297133,126.9628938,운영,,2004-12-31,,,2015-03-24
서울특별시,관악구,예은어린이집,민간,정상,08796,서울특별시 관악구 인헌17길 25 (봉천동)  [인헌동],02-875-2841,02-875-2841,9,131,0,16,11,46,34,37.4710229502942,126.9692006309659,운영,다음까페8752841,1998-09-17,,,
서울특별시,관악구,다사랑어린이집,민간,폐지,08797,서울특별시 관악구 인헌6길 29 2층 (봉천동)   [인헌동],02-878-0309,02-878-0309,3,132,0,6,0,31,0,37.4738356746,126.9651308007,운영,다음 카페,1999-05-13,,,2020-03-31
서울특별시,관악구,하나둘셋 어린이집,민간,폐지,08716,서울특별시 관악구 국회단지4길 21 하나둘셋어린이집,02-872-7114,02-885-7414,6,222,1,9,0,69,0,37.4873612,126.9412728,운영,http://iseoul.seoul.go.kr/homepage/main.do?stCode=11620000071,1996-09-03,,,2019-02-28
서울특별시,관악구,예진선교어린이집,민간,폐지,08788,서울특별시 관악구 관악로12길 9 (봉천동)  [낙성대동],02-872-7471,02-872-7471,5,94,0,9,0,35,0,37.47825781,126.952886,운영,,2005-06-09,,,2024-08-30
서울특별시,관악구,샛별몬테소리어린이집,민간,폐지,08830,서울특별시 관악구 소담길 14 ,02-877-5045,02-878-0589,4,77,0,0,0,22,0,37.47890529035939,126.94326758624213,운영,,1997-02-06,,,2016-03-01
서울특별시,관악구,푸른솔어린이집,민간,정상,08793,"서울특별시 관악구 낙성대역길 67 1,2층 (봉천동)  [인헌동]",02-871-1215,02-871-1215,6,275,2,7,11,64,32,37.47515812,126.9626827,운영,http://iseoul.seoul.go.kr/homepage/main.do?stCode=11620000075,1998-04-01,,,
서울특별시,관악구,내친구어린이집,민간,폐지,08782,서울특별시 관악구 장군봉2길 35 1층  [청룡동],02-886-3398,02-886-3398,4,67,0,4,0,24,0,37.48292163,126.9384477,미운영,http://iseoul.seoul.go.kr/portal/info/preSchoolList.do#nohref,2005-01-01,,,2023-03-31
서울특별시,관악구,동화나라어린이집,민간,폐지,08789,"서울특별시 관악구 남부순환로234길 42 102호 (봉천동, 새진아파트)  [낙성대동]",02-883-2344,02-883-2344,4,106,0,5,0,24,0,37.47769372,126.9564463,미운영,http://cafe.daum.net/donghwalovei,2000-02-23,,,2021-02-28
서울특별시,관악구,예랑어린이집,법인·단체등,폐지,08833,서울특별시 관악구 관악로 137 1층 (봉천동)  [청룡동],02-877-8112,02-877-8130,4,154,0,8,0,0,0,37.47745789,126.9516908,미운영,,1996-07-12,,,2017-02-28
서울특별시,관악구,금나라어린이집,민간,폐지,151050,서울특별시 관악구 남부순환로246길 43 (봉천동)  [인헌동],02-873-6500,02-871-6792,5,118,3,0,0,47,0,37.47461118,126.9639147,미운영,htp://goldnation.ukid.kr,1996-12-09,,,2015-07-21
서울특별시,관악구,예동어린이집,민간,폐지,08797,서울특별시 관악구 인헌길 100 (봉천동)  [인헌동],02-884-5675,02-871-8830,6,287,3,8,0,64,0,37.4711332558,126.9672708886,운영,,1997-08-09,,,2018-03-20
서울특별시,관악구,대선어린이집,법인·단체등,폐지,151818,서울 관악구 봉천7동 1620-9 2층 ,02-886-5117,02-3285-5117,0,0,0,0,0,63,0,,,,,1998-05-28,,,2010-01-23
서울특별시,관악구,서울대학교어린이보육지원센터 백학어린이집,직장,정상,08826,서울특별시 관악구 관악로 1 (봉천동) [낙성대동],02-880-5767,02-874-5768,12,720,1,29,40,230,120,37.46761613,126.9628638,미운영,kidshome.snu.ac.kr,1998-03-04,,,
서울특별시,관악구,성가정어린이집,민간,폐지,08854,서울특별시 관악구 난곡로30길 25 (신림동)  [난곡동],02-863-2306,02-858-2675,5,100,0,5,0,27,0,37.47146476250236,126.92127886453976,운영,,2004-12-21,,,2016-08-09
서울특별시,관악구,통통어린이집,민간,폐지,08759,서울특별시 관악구 관천로12길 30 <신림동>,02-871-1507,02-871-1507,4,71,0,4,0,21,0,37.48604152,126.9262357,미운영,http://iseoul.seoul.go.kr/homepage/main.do?stCode=11620000086,1997-12-30,,,2021-03-02
서울특별시,관악구,참행복한 어린이집,민간,폐지,08854,서울특별시 관악구 난곡로34길 22 2층 (신림동)  [난곡동],02-838-3796,02-838-3806,3,85,0,0,0,23,0,37.472498549003774,126.92042313637554,운영,,1997-03-10,,,2017-03-08
서울특별시,관악구,예슬어린이집,민간,폐지,08750,서울특별시 관악구 봉천로31길 3 전층 [은천동] (봉천동),02-888-8600,02-888-9177,5,376,1,8,0,84,0,37.48394015,126.9411967,미운영,,2002-11-27,,,2021-02-28
서울특별시,관악구,육영어린이집,민간,정상,08865,서울특별시 관악구 문성로16가길 42-3 (신림동)  [미성동],02-858-7797,02-858-3014,4,240,0,12,9,49,33,37.4751253873,126.9145371201,운영,보육포털사이트,2000-03-02,,,
서울특별시,관악구,키즈브라운어린이집,민간,폐지,151900,서울 관악구 신림1동 1628-11번지 ,02-858-4934,--,0,0,0,0,0,26,0,,,,,2004-10-26,,,2009-02-28
서울특별시,관악구,이레몬테소리어린이집,민간,폐지,08752,서울특별시 관악구 양녕로1길 8 은천동] (봉천동),02-875-1176,02-875-1164,3,117,1,0,0,39,0,37.48359971,126.9460511,미운영,cyworld.com/iremonte,2003-02-05,,,2015-04-01
서울특별시,관악구,사과나무어린이집,민간,폐지,08828,서울특별시 관악구 쑥고개로2길 30 한빛하우스2차 102호 [서림동] (신림동),02-875-0103,02-875-0103,4,89,0,0,0,21,0,37.47615566,126.9392489,미운영,,2002-12-16,,,2015-04-01
서울특별시,관악구,한결어린이집,민간,정상,08774,서울특별시 관악구 신원로3라길 7 (신림동)  [신원동],02-862-8314,02-869-8314,4,104,0,6,8,24,15,37.482413303298586,126.92604316405203,미운영,http://town.cyworld.com/hangyeol,2004-04-01,,,
서울특별시,관악구,영어린이집,민간,폐지,08829,서울특별시 관악구 쑥고개로2가길 35-5 관악구 신림동95-53 [서림동](신림동),02-884-2328,02-876-8823,3,79,0,10,0,39,0,37.45611942,126.9480588,운영,,2004-02-25,,,2019-02-28
서울특별시,관악구,즐거운어린이집,민간,폐지,08751,서울특별시 관악구 양녕로 31 두산아파트 3단지 관리동 1층 [은천동] (봉천동),02-3285-1998,02-3285-1998,3,155,0,4,0,31,0,37.48518707,126.9459179,미운영,,2001-06-14,,,2018-03-01
서울특별시,관악구,젬젬어린이집,민간,정상,08750,"서울특별시 관악구 봉천로 387 1동 1층(봉천동, 두산아파트)",02-3285-7406,02-3285-7406,4,82,1,6,9,29,20,37.483798298757975,126.94250069672619,미운영,,2005-04-01,,,
서울특별시,관악구,마엘가베어린이집,민간,폐지,151015,서울특별시 관악구 난곡로35길 60 (신림동)  [난곡동],02-857-3553,02-857-3553,6,145,0,12,0,49,0,37.47066504,126.9174321,운영,,2000-08-30,,,2015-10-31
서울특별시,관악구,찬솔어린이집,가정,폐지,08853,서울특별시 관악구 법원단지12길 24 (신림동)  [난곡동],02-853-0330,0-0-0,4,83,0,5,0,19,0,37.4728196514,126.9209337758,미운영,http://iseoul.seoul.go.kr/homepage/main.do?stCode=11620000098,1995-12-19,,,2018-03-01
서울특별시,관악구,샛별어린이집,민간,폐지,08706,서울특별시 관악구 관천로16길 40 1층 (신림동),02-887-8645,02-887-8645,4,108,0,4,0,25,0,37.48733611674542,126.92557246083119,미운영,,2002-03-18,,,2019-09-10
서울특별시,관악구,햇살어린이집,민간,폐지,08760,서울특별시 관악구 신림동7길 23 2층 (신림동)  [신림동],02-873-2312,02-873-2312,4,132,1,0,1,37,0,37.4859753,126.9265838,미운영,,1997-01-15,,,2013-04-08
서울특별시,관악구,법화어린이집,법인·단체등,폐지,151013,서울 관악구 신림3동 610-455 ,02-853-8128,02-853-8127,0,0,0,0,0,86,0,,,,,2005-01-10,,,2009-07-03
서울특별시,관악구,한별어린이집,민간,폐지,08774,서울특별시 관악구 문성로 199-1 (신림동)  [신원동],02-882-8812,02-882-8812,3,111,1,3,0,22,0,37.4792308711,126.9259332423,미운영,,1999-10-25,,,2019-02-28
서울특별시,관악구,하나어린이집,민간,정상,08705,"서울특별시 관악구 신사로10길 30 지하1층, 지상4층 (신림동)  [신사동]",02-838-6224,02-838-6001,5,222,1,9,12,84,39,37.48625944,126.9148812,미운영,https://cafe.naver.com/hana8386224,1995-09-05,,,
서울특별시,관악구,리라키즈스쿨어린이집,민간,정상,08763,서울특별시 관악구 남부순환로163가길 37 (신림동)  [신사동],02-869-7770,02-868-4145,8,286,1,9,6,95,13,37.48522394313062,126.91974480527743,미운영,,1995-12-28,,,
서울특별시,관악구,꿈이가득한어린이집,민간,폐지,08858,서울특별시 관악구 난곡로31길 53 (신림동)  [난곡동],02-859-8652,02-857-8652,5,130,0,8,0,44,0,37.470309008,126.9176671633,미운영,,2005-01-13,,,2022-12-31
서울특별시,관악구,노아어린이집,민간,폐지,151015,서울특별시 관악구 남부순환로145길 6 (신림동)  [조원동],02-852-3338,02-852-3336,8,200,3,0,0,60,0,37.4818757,126.912413,운영,,2000-01-21,,,2015-03-31
서울특별시,관악구,해맑은어린이집,가정,정상,08767,"서울특별시 관악구 조원로16길 7 102동 106호(신림동, 신도도브래뉴아파트) [조원동]",02-830-1210,02-851-6260,4,68,0,6,9,20,18,37.483801000580506,126.91061066173952,미운영,http://iseoul.seoul.go.kr/homepage/main.do?stCode=11620000114,2005-01-03,,,
서울특별시,관악구,아이세상어린이집,민간,폐지,08763,서울특별시 관악구 조원로 180 전층 (신림동)   [신사동],02-863-5222,02-864-5222,9,196,1,9,0,49,0,37.4861265158,126.9220821,운영,,2002-04-08,,,2020-04-30
서울특별시,관악구,엘림어린이집,민간,폐지,151014,서울 관악구 신림4동 477-10 ,02-868-2877,02-868-2877,0,3,0,0,0,21,0,,,,,1999-07-30,,,2015-04-01
서울특별시,관악구,성심샛별나라어린이집,민간,폐지,08774,서울특별시 관악구 신원로 13 (신림동)  [신원동],02-852-7200,02-852-7300,7,148,0,7,0,54,0,37.48046908,126.9276824,운영,http://iseoul.seoul.go.kr/homepage/main.do?stCode=11620000119,1998-12-28,,,2021-03-31
서울특별시,관악구,구립은천어린이집,국공립,정상,08714,서울특별시 관악구 국회단지10길 22 (봉천동)  [은천동],02-889-3176,02-878-6827,6,203,1,11,10,82,36,37.4882503227,126.9427946636,미운영,,1982-12-08,,,
서울특별시,관악구,은현어린이집,민간,정상,08859,서울특별시 관악구 난곡로11길 8 (신림동)  [난향동],02-858-0893,02-858-0893,5,192,2,9,7,30,13,37.46542651376933,126.91909226864391,운영,,1996-10-25,,,
서울특별시,관악구,훈세어린이집,민간,폐지,08705,서울특별시 관악구 관천로15길 100 2층 (신림동)  [신사동],02-863-7908,02-863-7908,4,126,0,7,0,23,0,37.48598974602752,126.9170574792566,미운영,,1997-03-20,,,2024-03-31
서울특별시,관악구,신림종합사회복지관 방과후교실,법인·단체등,폐지,151884,서울 관악구 신림동 664   (난향동) ,02-851-1885,02-851-9989,1,53,0,0,0,27,0,,,,www.sillym.or.kr,1999-03-12,,,2011-02-21
서울특별시,관악구,다울어린이집,민간,폐지,08853,서울특별시 관악구 법원단지20길 4 (신림동)  [난곡동],02-855-9864,02-855-9864,4,69,0,6,0,22,0,37.4745397959285,126.92246946031588,미운영,http://iseoul.seoul.go.kr/homepage/main.do?stCode=11620000124,1999-12-11,,,2021-03-16
서울특별시,관악구,오렌지art어린이집,민간,폐지,151015,서울특별시 관악구 난곡로65길 24 (신림동)  [조원동],02-830-0600,02-830-8803,6,276,1,6,0,64,0,37.48228042,126.912821,운영,,1998-09-14,,,2018-04-01
서울특별시,관악구,다솜어린이집,민간,폐지,08816,"서울특별시 관악구 신림로3길 40 2층 (신림동, 건영아파트 관리동)  [대학동]",02-885-1941,02-888-1941,4,107,0,7,0,39,0,37.46657574102586,126.94300561029182,미운영,,1997-02-27,,,2024-03-01
서울특별시,관악구,알토랑밤토랑어린이집,가정,폐지,08763,서울특별시 관악구 조원로 168 1층(신림동)  [신사동],02-853-1513,02-859-7589,3,40,0,4,0,15,0,37.4860032004,126.9209108385,미운영,http://iseoul.seoul.go.kr/homepage/main.do?stCode=11620000128,1998-09-14,,,2023-08-11
서울특별시,관악구,평화어린이집,민간,휴지,08767,서울특별시 관악구 난곡로 333 (신림동)  [조원동],02-857-9834,070-8224-9834,4,99,0,5,0,49,0,37.48379984824666,126.91391216591097,운영,shwa6473@hanmail.net,1994-03-02,2024-04-01,2025-03-31,
서울특별시,관악구,24시하나어린이집,민간,폐지,151871,서울 관악구 신림4동 500-2 ,02-838-6224,--,0,0,0,0,0,34,0,,,,,2002-10-21,,,2015-04-01
서울특별시,관악구,성아어린이집,민간,정상,08857,서울특별시 관악구 난곡로22길 23 (신림동)  [난곡동],02-857-5335,02-857-5332,5,78,1,8,11,33,24,37.46933104,126.9206325,운영,http://iseoul.seoul.go.kr/homepage/main.do?stCode=11620000131,1992-02-18,,,
서울특별시,관악구,재능어린이집,민간,정상,08844,서울특별시 관악구 서원6길 28 2층 (신림동)  [서원동],02-885-3014,02-885-3015,7,306,1,9,11,65,24,37.47744405,126.9313379,운영,jn1004.vgk.co.kr,1988-02-10,,,
서울특별시,관악구,하은어린이집,민간,폐지,08858,"서울특별시 관악구 난곡로31길 14 1층. 2층, 3층 (신림동)  [난곡동]",02-868-9096,02-865-9096,5,348,0,6,0,49,0,37.47130823,126.9189728831,운영,,1999-05-20,,,2019-05-16
서울특별시,관악구,키즈아트어린이집,민간,폐지,08850,서울특별시 관악구 난우10길 7 (신림동)  [미성동],02-856-1313,02-856-1313,5,152,0,5,0,49,0,37.47709164,126.9185514,운영,,2000-03-20,,,2018-05-30
서울특별시,관악구,큐티프리스쿨어린이집,민간,정상,08847,"서울특별시 관악구 호암로 399 관리동 (신림동,삼성산주공아파트)  [삼성동]",02-3285-2030,02-3285-2030,4,123,4,7,11,46,33,37.461372542,126.9254535224,운영,,2002-02-14,,,
서울특별시,관악구,봄샘푸르지오어린이집,민간,정상,08770,"서울특별시 관악구 남부순환로 1430 관리동 1층 (신림동, 대우푸르지오아파트)  [미성동]",02-830-6654,02-830-6664,4,184,2,5,13,43,40,37.47923709230755,126.9090378047843,운영,http://iseoul.seoul.go.kr/homepage/main.do?stCode=11620000141,2005-08-29,,,
서울특별시,관악구,굿모닝어린이집,가정,폐지,08848,서울특별시 관악구 호암로 417 국제산장아파트 관리동 2층 [삼성동] (신림동),02-871-2155,02-871-2155,4,78,0,6,0,20,0,37.46077396,126.9277761,미운영,,2002-09-19,,,2022-03-18
서울특별시,관악구,보라어린이집,민간,정상,08856,서울특별시 관악구 난곡로24가길 6 (신림동)  [난곡동],02-859-4548,--,6,147,1,11,19,49,42,37.46965897,126.92102754,운영,http://iseoul.seoul.go.kr/homepage/main.do?stCode=11620000143,2001-10-24,,,
서울특별시,관악구,평강어린이집,가정,폐지,08866,서울특별시 관악구 미성8길 3-20 (신림동)  [미성동],02-838-1787,02-838-1787,3,46,3,5,0,17,0,37.4736752627,126.9127571046,미운영,https://iseoul.seoul.go.kr/homepage/main.do?stCode=11620000144,1999-06-10,,,2021-05-31
서울특별시,관악구,재롱이어린이집,민간,폐지,08784,서울특별시 관악구 장군봉7길 35 [청룡동] (봉천동),02-882-1800,02-874-7799,4,97,0,6,0,38,0,37.47976784,126.9407423,운영,www.jaelong2.es-kid.co.kr,1998-03-23,,,2021-03-15
서울특별시,관악구,신광어린이집,민간,폐지,151015,서울특별시 관악구 난곡로63가길 42 (신림동)  [미성동],02-852-0366,02-852-0367,6,189,1,0,0,79,0,37.47916821,126.9141923,운영,,1998-04-01,,,2015-04-01
서울특별시,관악구,조은어린이집,민간,폐지,151015,서울특별시 관악구 신사로20길 52 (신림동)  [신사동],02-839-1920,02-865-1920,3,84,0,0,0,23,0,37.48687049,126.9175488,미운영,,1995-03-02,,,2016-02-29
서울특별시,관악구,유아나라어린이집,가정,폐지,08730,"서울특별시 관악구 관악로 304 112동 103호(봉천동, 현대아파트)  [청림동]",02-874-3208,02-874-3208,4,156,1,4,0,20,0,37.492051648233236,126.95771348805392,미운영,,1999-03-03,,,2020-02-28
서울특별시,관악구,나무바다어린이집,가정,정상,08751,"서울특별시 관악구 은천로 86 207동 102호(봉천동, 두산아파트)  [은천동]",02-6105-5282,02-6105-5282,5,82,0,8,4,20,5,37.486293262476494,126.94550359174114,미운영,http://iseoul.seoul.go.kr/homepage/main.do?stCode=11620000154,2001-05-01,,,
서울특별시,관악구,아가랑홈스쿨어린이집,가정,폐지,08734,"서울특별시 관악구 관악로30길 27 121동 103호(봉천동, 관악푸르지오아파트)  [청림동]",02-6672-6672,02-6672-6672,4,105,0,4,0,20,0,37.48580385721615,126.96105365270644,미운영,,2004-01-14,,,2022-10-14
서울특별시,관악구,현대가정어린이집,가정,폐지,08730,"서울특별시 관악구 관악로 304 118동 102호(봉천동, 현대아파트)  [청림동]",02-6275-3003,02-6275-3003,4,56,0,5,0,20,0,37.492051648233236,126.95771348805392,미운영,www.cyworld.com/whitesj9805,2005-01-13,,,2017-02-28
서울특별시,관악구,꿈나무가정어린이집,가정,정상,08725,"서울특별시 관악구 성현로 80 143동 101호(봉천동, 관악드림타운)  [성현동]",02-888-8279,02-888-8279,4,53,0,4,7,20,16,37.489500306567614,126.94934294358936,미운영,http://iseoul.seoul.go.kr/images/portal/contents/btn_home.gif,2001-09-26,,,
서울특별시,관악구,예닮어린이집,가정,폐지,08730,"서울특별시 관악구 관악로 304 103동 101호(봉천동, 현대아파트)",02-875-5324,02-888-1859,3,72,0,4,0,20,0,37.49220103,126.9583365,미운영,,2001-12-13,,,2016-02-01
서울특별시,관악구,햇님어린이집,가정,정상,08725,"서울특별시 관악구 성현로 80 110동 103호(봉천동, 관악드림타운)  [성현동]",02-885-7956,02-885-7956,4,141,0,5,9,20,18,37.489845,126.95296,운영,,2004-09-14,,,
서울특별시,관악구,아기샛별어린이집,가정,폐지,08725,"서울특별시 관악구 성현로 80 138동 101호(봉천동, 관악드림타운)  [성현동]",02-6335-3552,02-6335-3552,3,85,0,4,0,20,0,37.49150305776916,126.94995785962156,미운영,,2001-08-06,,,2018-09-27
서울특별시,관악구,레미안어린이집,가정,폐지,151050,"서울특별시 관악구 성현로 80 144-101(봉천동,관악드림타운아파트)   [성현동]",02-872-5034,02-872-5034,4,53,0,4,0,20,0,37.489845,126.95296,운영,,2004-06-01,,,2016-03-31
서울특별시,관악구,지혜어린이집,가정,폐지,08711,서울특별시 관악구 봉천로13길 29-32 (봉천동)  [보라매동],02-882-2246,02-882-2246,4,56,0,4,0,20,0,37.4906223283,126.9303952609,미운영,,2002-05-27,,,2020-04-30
서울특별시,관악구,아이보리어린이집,가정,폐지,08749,서울특별시 관악구 봉천로 331-8 (봉천동)  [은천동],02-889-8098,02-889-8098,3,65,0,4,0,15,0,37.4857356997,126.9376316302,운영,,1998-05-15,,,2021-06-30
서울특별시,관악구,가나어린이집,민간,정상,08710,서울특별시 관악구 당곡6길 16-3 보라매동] (봉천동),02-877-4804,02-884-3241,5,224,0,7,6,32,7,37.49126902,126.9284791,미운영,,2005-07-19,,,
서울특별시,관악구,동화속에어린이집,가정,폐지,151762,"서울특별시 관악구 관악로 285 105동 101호(봉천동, 봉천동아1차아파트)  [성현동]",02-3285-0421,02-3285-0421,5,142,0,0,0,20,0,37.48939,126.955444,미운영,,2005-07-11,,,2016-02-29
서울특별시,관악구,명지어린이집,가정,폐지,151050,서울특별시 관악구 관악로30길 27 관악푸르지오아파트 121-104 [청림동] (봉천동),02-6332-3688,02-6332-3688,3,84,0,0,0,20,0,37.48720241,126.9608359,미운영,http://cafe.naver.com/myounggi,2004-01-07,,,2015-08-31
서울특별시,관악구,성요셉어린이집,가정,폐지,151050,서울특별시 관악구 쑥고개로 77-4 (봉천동)  [청룡동],02-877-0701,02-873-2334,2,71,0,0,0,18,0,37.47968446,126.9452208,미운영,,2005-01-27,,,2015-03-09
서울특별시,관악구,보물섬어린이집,가정,폐지,08726,"서울특별시 관악구 관악로 285 105동 101호(봉천동, 봉천동아1차아파트)  [성현동]",02-6332-1190,02-6332-1190,3,142,3,5,0,20,0,37.489391040230316,126.95544446967143,미운영,,2004-01-09,,,2022-03-01
서울특별시,관악구,햇님데이케어어린이집,가정,폐지,08725,"서울특별시 관악구 성현로 80 110동 104호(봉천동, 관악드림타운)  [성현동]",02-886-6985,--,4,83,0,5,0,20,0,37.4898477985,126.9529837015,운영,,2001-11-09,,,2022-02-28
서울특별시,관악구,초록마을어린이집,민간,폐지,08711,서울특별시 관악구 봉천로 247-13 보라매동] (봉천동),02-871-6687,02-871-6697,4,154,0,6,0,36,0,37.48971393,126.9292872,미운영,,1998-03-11,,,2021-03-15
서울특별시,관악구,아이꿈나무어린이집,가정,폐지,08715,"서울특별시 관악구 은천로 93 105동 102호(봉천동, 벽산블루밍아파트)  [은천동]",02-883-7773,--,4,114,0,4,0,20,0,37.4872820001,126.945246769,미운영,town.cyworld.com/idreamtree,2003-12-17,,,2020-05-31
서울특별시,관악구,행복한사랑어린이집,가정,폐지,151050,서울특별시 관악구 남부순환로231길 46-9 (봉천동)  [행운동],02-882-3217,02-882-3287,3,64,0,4,0,14,0,37.48106593,126.9587489,미운영,,2006-02-15,,,2018-03-01
서울특별시,관악구,아기구름어린이집,가정,폐지,08742,서울특별시 관악구 남부순환로237길 22 1층 [행운동] (봉천동),02-872-2627,02-6677-2627,4,63,0,4,0,20,0,37.47935109,126.9607796,미운영,,2001-06-14,,,2017-02-28
서울특별시,관악구,새동원어린이집,민간,폐지,08763,서울특별시 관악구 남부순환로163가길 10 1-3층 (신림동)  [신사동],02-857-7777,02-859-8977,8,365,1,9,0,94,0,37.4845473536,126.9211837323,미운영,,1996-02-16,,,2024-03-31
서울특별시,관악구,아해뜰어린이집,가정,폐지,151832,서울 관악구 봉천동  1635-32/203   [인헌동] ,02-886-0368,--,4,64,0,0,0,16,0,,,,,2002-10-30,,,2011-10-15
서울특별시,관악구,아이위즈어린이집,가정,정상,08715,"서울특별시 관악구 은천로 93 103동 103호(봉천동, 벽산블루밍아파트)  [은천동]",02-3285-0307,02-3285-0307,3,56,0,4,6,20,20,37.4872820001,126.945246769,미운영,,2003-11-04,,,
서울특별시,관악구,새싹어린이집,가정,폐지,08715,"서울특별시 관악구 은천로 93 107동 103호(봉천동, 벽산블루밍아파트)  [은천동]",02-3285-3386,02-3285-3337,3,53,0,5,0,19,0,37.4872820001,126.945246769,미운영,,2003-11-04,,,2021-04-30
서울특별시,관악구,보물단지어린이집,가정,폐지,151050,"서울특별시 관악구 남부순환로230길 94 101호(봉천동,푸르빌3차아파트)   [낙성대동]",02-888-3677,--,3,99,3,6,0,20,0,37.47602573,126.9543915,미운영,,2004-11-24,,,2017-03-02
서울특별시,관악구,꼬마숲어린이집,가정,폐지,08805,서울특별시 관악구 남현길 18 (남현동)  [남현동],02-525-5520,050-844-5520,4,58,1,3,0,20,0,37.4757956098,126.9771813545,미운영,,1995-07-15,,,2019-11-30
서울특별시,관악구,희아어린이집,가정,폐지,08734,"서울특별시 관악구 관악로30길 27 122동 101호(봉천동, 관악푸르지오)  [청림동]",02-886-0801,02-886-1026,3,127,0,4,0,20,0,37.4889676102,126.9606415553,미운영,,2003-12-23,,,2019-02-28
서울특별시,관악구,그림어린이집,가정,폐지,08735,"서울특별시 관악구 관악로30길 12 101동 108호(봉천동,우성아파트)  [행운동]",02-888-7742,0504-148-6499,3,71,1,5,0,20,0,37.4840985767,126.9606848133,미운영,,2003-03-18,,,2019-11-27
서울특별시,관악구,은비어린이집,가정,정상,08734,"서울특별시 관악구 관악로30길 27 109동 103호 (봉천동,대우푸르지오아파트)   [청림동]",02-889-3807,--,3,48,0,4,7,20,14,37.4889676102,126.9606415553,미운영,http://iseoul.seoul.go.kr/homepage/main.do?stCode=11620000190,2004-02-12,,,
서울특별시,관악구,우리아이어린이집,가정,폐지,151778,"서울특별시 관악구 은천로 93 204동 102호(봉천동, 벽산블루밍아파트)  [은천동]",02-878-4357,02-878-4357,3,63,0,0,0,20,0,37.48725,126.9452,미운영,http://blog.daum.net/ysin518,2003-10-17,,,2013-10-08
서울특별시,관악구,무릎학교어린이집,가정,정상,08715,"서울특별시 관악구 은천로 93 209동 101호(봉천동, 벽산블루밍아파트)  [은천동]",02-3285-3567,02-3285-3567,4,98,0,5,9,20,20,37.49120941168318,126.94316782047137,운영,서울시보육정보센터->어린이집검색,2004-02-06,,,
서울특별시,관악구,해처럼밝은아이어린이집,가정,폐지,151883,서울 관악구 신림13동 661-50번지 2층 ,02-864-9363,02-864-9363,0,0,0,0,0,16,0,,,,,2005-01-10,,,2009-05-13
서울특별시,관악구,큐티아기스쿨어린이집,가정,폐지,151015,"서울특별시 관악구 호암로 399 303동103호(신림동,삼성산주공아파트)   [삼성동]",02-3285-0887,02-3285-0887,3,107,0,0,0,20,0,37.46240473,126.9261748,미운영,,2001-03-12,,,2016-02-29
서울특별시,관악구,파란꿈어린이집,가정,폐지,08774,서울특별시 관악구 남부순환로172길 29 (신림동)  [신원동],02-838-6660,02-838-6660,3,79,0,0,0,16,0,37.48280138676038,126.92422471773444,미운영,,2004-10-13,,,2016-02-16
서울특별시,관악구,소하어린이집,가정,폐지,08705,서울특별시 관악구 관천로15길 116 (신림동)  [신사동],02-854-4786,--,5,74,0,6,0,15,0,37.4858449688465,126.91618475242585,미운영,http://www.cafe.daum.net/soha0911,2005-01-31,,,2017-02-28
서울특별시,관악구,지혜샘어린이집,가정,폐지,08770,"서울특별시 관악구 남부순환로 1430 105동 102호(신림동,대우푸르지오아파트)   [미성동]",02-855-0229,--,4,88,0,5,0,19,0,37.4792370923,126.9090378048,미운영,http://iseoul.seoul.go.kr/homepage/main.do?stCode=11620000199,2004-08-18,,,2020-03-01
서울특별시,관악구,라임어린이집,가정,폐지,08858,"서울특별시 관악구 난곡로35길 28-7 라동 103호(신림동,건영아파트)",02-6269-1717,02-6269-1717,3,45,0,4,0,17,0,37.47164470705705,126.91759730488586,미운영,,2002-08-03,,,2022-09-30
서울특별시,관악구,시온어린이집,가정,폐지,08767,"서울특별시 관악구 조원로16길 7 102동 106호(신림동,신도브래뉴아파트)   [조원동]",02-852-2824,--,4,80,0,5,0,20,0,37.4838951929,126.9112572831,미운영,,2005-01-19,,,2019-02-28
서울특별시,관악구,리라어린이집,가정,폐지,08781,서울특별시 관악구 신림로48길 30-17 서원동] (신림동),02-876-1002,02-876-1002,4,46,0,0,0,17,0,37.47901456,126.9340291,미운영,,2005-03-02,,,2015-04-01
서울특별시,관악구,엄마무릎어린이집,가정,폐지,151771,"서울특별시 관악구 문성로 74 다동 108호(신림동, 건영아파트)  [미성동]",02-851-0915,--,3,74,0,4,0,12,0,37.47435579,126.9431159,미운영,,2005-03-01,,,2017-03-04
서울특별시,관악구,운서어린이집,가정,폐지,151015,"서울특별시 관악구 미성길 60 103호(신림동,두영아파트)  [미성동]",02-858-6999,02-858-1439,3,84,0,4,0,18,0,37.4746212,126.9138613,운영,http://cafe.naver.com/unseo114,2005-01-20,,,2016-03-31
서울특별시,관악구,즐거운가정어린이집,가정,폐지,151865,서울 관악구 신림동  391-17   [삼성동] ,02-873-3387,02-873-3387,4,52,1,0,0,14,0,,,,,1994-07-05,,,2015-04-01
서울특별시,관악구,사랑마루어린이집,가정,폐지,151015,"서울특별시 관악구 미성7길 5-6 103호(신림동,미래한건아파트)  [미성동]",070-8256-0366,02-852-0367,3,85,0,0,0,17,0,37.47419271,126.9154751,미운영,,2006-01-10,,,2016-09-03
서울특별시,관악구,무지개어린이집,가정,폐지,151015,"서울특별시 관악구 조원로11길 24 101-101호(신림동,조원아파트)   [조원동]",02-868-1373,02-839-0975,3,139,0,4,0,20,0,37.48425241,126.9075041,미운영,,2003-02-28,,,2016-06-30
서울특별시,관악구,꼬꼬마어린이집,가정,폐지,08847,"서울특별시 관악구 호암로 399 306동 101호(신림동,삼성산주공아파트)   [삼성동]",02-6335-2677,02-6335-2677,3,128,0,4,0,20,0,37.461372542,126.9254535224,운영,,2005-01-24,,,2019-02-28
서울특별시,관악구,오성어린이집,민간,정상,08857,서울특별시 관악구 난곡로18길 13-4 (신림동)  [난곡동],02-865-4549,02-865-4549,5,105,1,8,9,34,17,37.46800084794506,126.92063590027456,운영,http://iseoul.seoul.go.kr/homepage/main.do?stCode=11620000211,2004-12-01,,,
서울특별시,관악구,평안어린이집,법인·단체등,폐지,08743,서울특별시 관악구 은천로 144 [중앙동] (봉천동),02-879-1424,02-875-1961,6,273,0,2,0,49,0,37.48549667,126.9492153,운영,,1999-12-17,,,2017-03-01
서울특별시,관악구,신나는어린이집,가정,폐지,08715,"서울특별시 관악구 은천로 93 205동 101호(봉천동, 벽산블루밍아파트)  [은천동]",02-6268-8608,02-6268-8608,4,60,0,5,0,20,0,37.48728200005818,126.94524676897967,미운영,,2003-11-20,,,2021-03-05
서울특별시,관악구,예솔어린이집,민간,폐지,08865,서울특별시 관악구 미성3길 8 (신림동)  [미성동],02-852-9675,02-852-9675,4,103,1,5,0,21,0,37.474056347,126.9164375855,운영,,2004-11-05,,,2020-12-18
서울특별시,관악구,아이좋아어린이집,가정,폐지,151050,서울특별시 관악구 장군봉11길 14 (봉천동)  [청룡동],02-884-3302,02-884-3302,3,57,0,0,0,15,0,37.47983527,126.9396209,미운영,http://cafe.daum.net/aijoa33,2004-12-22,,,2015-03-11
서울특별시,관악구,은빛어린이집,민간,폐지,08783,서울특별시 관악구 신림로 224-1 ,02-884-1731,02-884-1731,3,101,0,4,0,20,0,37.4775927,126.9365275,미운영,,1995-01-05,,,2020-05-01
서울특별시,관악구,아기사랑어린이집,민간,폐지,08800,서울특별시 관악구 인헌23길 3 (봉천동)  [인헌동],02-884-1776,02-516-6262,6,112,0,0,0,35,0,37.4696199537,126.9687320747,운영,,2003-03-18,,,2018-04-05
서울특별시,관악구,동아어린이집,민간,폐지,08726,서울특별시 관악구 관악로37길 20 동아 아파트 B상가 2층,02-888-0306,02-888-0311,8,214,3,11,0,75,0,37.48766348,126.9561041,운영,http://cafe.daum.net/donga-kid,2000-03-06,,,2024-04-01
서울특별시,관악구,구립금빛어린이집,국공립,정상,08793,서울특별시 관악구 남부순환로246가길 17 (봉천동)  [인헌동],02-875-8172,02-875-8171,7,235,3,16,17,88,86,37.47536381391959,126.9652205327789,미운영,geumbit94@hanmail.net,1993-04-07,,,
서울특별시,관악구,은천꿈의어린이집,민간,폐지,08779,서울특별시 관악구 남부순환로 1654 2층 (신림동)   [서원동],02-882-2984,--,4,216,0,8,0,36,0,37.48456729,126.9345834,미운영,http://iseoul.seoul.go.kr/homepage/main.do?stCode=11620000227,2004-08-02,,,2020-03-31
서울특별시,관악구,창민어린이집,가정,폐지,08756,서울특별시 관악구 남부순환로 1665-24 (봉천동)  [은천동],02-879-0479,02-875-0479,4,54,0,4,0,20,0,37.4853853017,126.9361213388,운영,,2003-11-10,,,2019-04-08
서울특별시,관악구,키즈맘어린이집,민간,폐지,08719,서울특별시 관악구 봉천로23나길 35 101호,02-874-0761,02-872-0761,3,94,0,4,0,22,0,37.487058257,126.9373998677,미운영,,1996-12-18,,,2020-07-26
서울특별시,관악구,예쁜어린이집,가정,폐지,08734,"서울특별시 관악구 관악로30길 27 103동104호( 봉천동, 관악푸르지오아파트)[청림동]",02-886-7999,02-886-7999,3,63,0,4,0,20,0,37.48744532,126.9428185,미운영,http://iseoul.seoul.go.kr//homepage/main.do?stCode=11620000230,2003-12-31,,,2020-03-02
서울특별시,관악구,백상어린이집,민간,정상,08838,서울특별시 관악구 신림로28길 18 서림동] (신림동),02-883-3803,02-883-3803,5,99,0,8,9,37,28,37.47310281,126.9350299,미운영,,1991-10-30,,,
서울특별시,관악구,해솔놀이방,가정,폐지,151855,서울 관악구 신림2동 102-43 ,02-876-6548,--,0,0,0,0,0,12,0,,,,,2003-08-25,,,2015-04-01
서울특별시,관악구,가람어린이집,민간,폐지,08713,서울특별시 관악구 국회단지9길 7 가람어린이집 [은천동] (봉천동),02-874-5232,02-874-5232,4,121,1,6,0,38,0,37.49109863,126.9423678,미운영,,2005-01-04,,,2023-02-28
서울특별시,관악구,이큐어린이집,가정,폐지,08847,"서울특별시 관악구 호암로 399 303동 102호(신림동,삼성산주공아파트)   [삼성동]",02-3285-0884,--,3,107,0,4,0,20,0,37.461372542,126.9254535224,미운영,,2004-07-30,,,2020-07-31
서울특별시,관악구,참좋은방과후교실어린이집,법인·단체등,폐지,08789,서울특별시 관악구 봉천로 540 (낙성대동),02-882-5117,02-3285-5117,3,162,0,0,0,40,0,37.4783709,126.9576251,미운영,,2005-12-15,,,2013-01-03
서울특별시,관악구,솔샘어린이집,가정,정상,08750,"서울특별시 관악구 봉천로 387 102동 101호(봉천동, 두산아파트)  [은천동]",02-3285-1105,02-3285-1105,3,53,0,4,5,20,13,37.48376325995358,126.94270763276437,미운영,,2003-04-29,,,
서울특별시,관악구,행복나라어린이집,가정,폐지,08784,서울특별시 관악구 청룡8길 82 (봉천동)  [청룡동],02-888-5765,02-885-5765,3,80,0,4,0,20,0,37.4800721221,126.9414713182,미운영,,2005-01-21,,,2022-10-14
서울특별시,관악구,성민장애아동어린이집,사회복지법인,폐지,08846,서울특별시 관악구 호암로 549 성민종합사회복지관 4층(신림동) [삼성동],02-875-0960,02-876-0901,2,124,0,7,0,40,0,37.4667893275,126.9312402909,운영,http://www.smw.or.kr,1995-10-09,,,2018-02-28
서울특별시,관악구,꼬마별어린이집,가정,폐지,08797,"서울특별시 관악구 인헌길 116 101호 (봉천동,라인맨션)  [인헌동]",02-875-2711,--,4,70,0,4,0,18,0,37.4705422951,126.9676419346,미운영,,2002-04-10,,,2022-03-18
서울특별시,관악구,또래가정어린이집,가정,정상,08735,"서울특별시 관악구 관악로30길 12 105동 113호 (봉천동,우성아파트)  [행운동]",02-876-1315,02-876-1315,3,79,0,4,10,20,19,37.4840985767,126.9606848133,미운영,https://www.instagram.com/ddorae2000,2000-05-30,,,
서울특별시,관악구,떡잎어린이집,민간,정상,08784,서울특별시 관악구 장군봉7길 12 청룡동] (봉천동),02-879-2844,02-871-5176,5,267,1,8,8,67,25,37.48046051708736,126.93979772499283,운영,네이버밴드,2005-03-02,,,
서울특별시,관악구,삼성성모어린이집,가정,정상,08709,"서울특별시 관악구 보라매로 62 102동 109호(봉천동, 보라매삼성아파트)  [보라매동]",02-875-7028,02-875-7028,3,84,4,4,4,20,3,37.4933922804,126.9278189979,미운영,,2004-04-14,,,
서울특별시,관악구,횃불어린이집,가정,폐지,08722,서울특별시 관악구 당곡길 7-8 ,02-883-8498,02-883-8498,3,59,0,4,0,20,0,37.48978617,126.9285093,미운영,,2001-06-25,,,2019-02-28
서울특별시,관악구,소슬어린이집,민간,정상,08725,서울특별시 관악구 성현로 80 성현동] (봉천동),02-6671-6002,02-6956-6974,7,370,1,17,25,115,95,37.48961616594,126.94900505691373,운영,,2001-06-29,,,
서울특별시,관악구,파랑새어린이집,가정,정상,08770,"서울특별시 관악구 남부순환로 1430 106동 102호(신림동, 신림푸르지오)  [미성동]",02-6337-7893,02-857-7893,4,145,0,5,7,20,15,37.4792370923,126.9090378048,미운영,http://iseoul.seoul.go.kr/homepage/main.do?stCode=11620000247,2004-09-01,,,
서울특별시,관악구,하늘어린이집,민간,폐지,151879,서울 관악구 신림3동 612-29 ,02-864-1112,02-864-1112,0,0,0,0,0,38,0,,,,,1999-04-07,,,2009-03-02
서울특별시,관악구,푸른어린이집,법인·단체등,정상,08792,서울특별시 관악구 낙성대로3길 15 (봉천동)  [낙성대동],02-877-3486,02-877-3487,7,259,2,16,13,96,43,37.4750882695,126.9600428758,운영,,1998-05-12,,,
서울특별시,관악구,구립신일어린이집,국공립,정상,08842,서울특별시 관악구 문성로28길 51 (신림동)  [신림동],02-854-0140,02-853-6768,6,300,1,14,9,68,22,37.477119133,126.9262971028,미운영,,1984-03-12,,,
서울특별시,관악구,또래또어린이집,가정,폐지,08735,"서울특별시 관악구 관악로30길 12 102동 108호(봉천동, 우성아파트)  [행운동]",02-871-1316,02-876-0215,4,97,0,5,0,20,0,37.48510958,126.9594368,미운영,,2005-01-07,,,2024-03-01
서울특별시,관악구,행복한어린이집,민간,정상,08751,"서울특별시 관악구 은천로 86 2단지 관리동 1층 (봉천동, 두산아파트)  [은천동]",02-875-3455,02-875-3455,3,168,0,7,9,37,20,37.48554807674857,126.94442490068717,미운영,http://iseoul.seoul.go.kr/homepage/main.do?stCode=11620000252,2002-04-01,,,
서울특별시,관악구,전박사어린이집,민간,정상,08709,서울특별시 관악구 보라매로 62 보라매 삼성아파트 단지내 전박사 어린이집,02-873-7208,02-875-9660,5,317,1,8,8,86,44,37.49402158,126.9278698,미운영,mondrjun@hanmail.net,1996-07-09,,,
서울특별시,관악구,민지어린이집,민간,폐지,08739,서울특별시 관악구 행운1길 9 2층 (봉천동)  [행운동],02-875-3794,02-876-3794,4,98,0,5,0,26,0,37.47973715,126.9584722,미운영,http://cafe.daum.net/minjih,1999-12-28,,,2019-02-28
서울특별시,관악구,안델센어린이집,민간,정상,08793,서울특별시 관악구 인헌6길 26 2층 (봉천동)  [인헌동],02-882-7163,--,4,97,0,6,5,28,8,37.47413322,126.9652056,미운영,,1995-02-27,,,
서울특별시,관악구,유신어린이집,민간,폐지,08860,서울특별시 관악구 난곡로 84 2층 (신림동)  [난향동],02-861-3551,02-861-3554,5,188,1,5,0,71,0,37.46285401,126.9194155,미운영,yskmc.net,2005-01-28,,,2023-03-31
서울특별시,관악구,블루밍어린이집,민간,폐지,08715,"서울특별시 관악구 은천로 95 (봉천동, 벽산블루밍아파트)  [은천동]",02-883-9900,02-883-3232,4,140,1,6,0,57,0,37.48736,126.94586,미운영,,2004-01-19,,,2017-02-28
서울특별시,관악구,조원어린이집,민간,폐지,08766,서울특별시 관악구 조원로12길 20 (신림동)  [조원동],02-858-7942,--,5,250,1,5,0,49,0,37.482948263,126.9077669905,운영,,2005-08-24,,,2020-09-27
서울특별시,관악구,푸른나무어린이집,가정,폐지,08730,"서울특별시 관악구 관악로 304 110동 104호(봉천동, 현대아파트)",02-884-5600,02-884-5600,3,88,0,5,0,20,0,37.492051648233236,126.95771348805392,미운영,http://iseoul.seoul.go.kr/homepage/main.do?stCode=11620000264,2005-01-29,,,2021-03-01
서울특별시,관악구,청림동사임당어린이집,가정,폐지,08734,"서울특별시 관악구 관악로30길 27 110동 103호(봉천동, 관악푸르지오)  [청림동]",02-6747-9779,--,3,85,1,4,0,15,0,37.4889676102,126.9606415553,미운영,www.aga24.net/branch/cheonglim,2003-12-23,,,2018-06-28
서울특별시,관악구,사랑나무어린이집,민간,폐지,08851,서울특별시 관악구 법원단지5길 18 1층 (신림동)  [미성동],02-851-0539,02-851-0180,4,120,0,6,0,28,0,37.4750674266,126.9192401497,운영,http://iseoul.seoul.go.kr/homepage/main.do?stCode=11620000268,1995-11-25,,,2022-03-15
서울특별시,관악구,구립낙성대어린이집,국공립,정상,08790,서울특별시 관악구 관악로12길 58-5 (봉천동)  [낙성대동],02-872-0726,02-882-4402,5,298,1,10,15,75,54,37.47731032814821,126.95547425401503,미운영,http://info.childcare.go.kr/info/pnis/search/preview/SummaryInfoSlPu.jsp?flag=YJ&STCODE_POP=11620000272,1996-05-10,,,
서울특별시,관악구,남현한소망어린이집,민간,폐지,08808,서울특별시 관악구 승방3길 7 남현동] (남현동),02-586-9114,02-586-9113,4,230,1,5,0,61,0,37.47343088,126.9810192,운영,,1996-09-26,,,2021-03-01
서울특별시,관악구,충성어린이집,민간,폐지,08810,서울특별시 관악구 과천대로 851 부대안 [남현동] (남현동),02-524-1614,02-522-3374,4,330,6,0,0,60,0,37.46640291,126.9861778,운영,,1996-12-30,,,2014-03-18
서울특별시,관악구,다온어린이집,가정,폐지,151015,"서울특별시 관악구 남부순환로198길 10 101 (신림동, 효림다온아파트)   [서원동]",02-886-0225,02-886-0225,3,56,0,4,0,19,0,37.48404231,126.9364192,미운영,,2004-09-30,,,2017-02-28
서울특별시,관악구,꿈사랑어린이집,가정,폐지,08846,서울특별시 관악구 양지13길 13 신림동 357-54  [삼성동](신림동),02-874-8589,--,3,72,0,4,0,15,0,37.468799386526065,126.92954733288026,미운영,,2006-06-28,,,2020-02-29
서울특별시,관악구,예쁨예능어린이집,민간,폐지,151876,서울 관악구 신림8동 544-11 예쁨예능어린이집 ,02-852-0083,--,1,180,0,0,0,42,0,,,,,1998-08-28,,,2008-09-10
서울특별시,관악구,남현어린이집,민간,정상,08806,서울특별시 관악구 남현1가길 18-4 남현동] (남현동),02-584-2855,02-584-2855,4,117,0,6,10,44,28,37.47513111,126.9774676,미운영,,2001-11-29,,,
서울특별시,관악구,효성샛별나라어린이집,민간,폐지,151900,서울 관악구 신림동 1603-7호 2층  [신원동] ,02-852-7400,02-852-7300,3,54,0,0,0,25,0,,,,,1999-07-22,,,2010-12-23
서울특별시,관악구,혜지어린이집,가정,폐지,08725,"서울특별시 관악구 성현로 80 120동 101호(봉천동, 관악드림타운)  [성현동]",02-885-6832,-885-6832,4,61,0,4,0,20,0,37.489861387063904,126.95094835514548,미운영,,2001-08-30,,,2024-02-29
서울특별시,관악구,샛별꼬마숲어린이집,민간,폐지,151015,서울특별시 관악구 남부순환로168가길 55-1 (신림동)  [신원동],02-852-7400,02-852-7300,4,103,0,0,0,39,0,37.4804663,126.9273761,미운영,,1999-07-06,,,2019-03-13
서울특별시,관악구,꿈그린어린이집,가정,폐지,08726,"서울특별시 관악구 관악로 285 108동 101호(봉천동, 봉천동아1차아파트)  [성현동]",02-6335-1190,02-6335-1190,3,142,0,4,0,20,0,37.490101850222935,126.95521959421806,미운영,,2005-01-29,,,2024-03-01
서울특별시,관악구,중앙사회복지관 방과후 어린이집,법인·단체등,폐지,151050,서울특별시 관악구 봉천로41길 33 (중앙동) (봉천동),02-872-5802,02-888-5614,1,42,0,0,0,16,0,37.48435092,126.9480441,미운영,www.causwc.or.kr,2000-04-24,,,2013-01-24
서울특별시,관악구,햇살어린이집,가정,폐지,08751,서울특별시 관악구 은천로 86 두산 202동 103호,02-3285-0912,02-3285-0912,3,109,1,4,0,19,0,37.4872820001,126.945246769,미운영,,2004-01-30,,,2021-03-01
서울특별시,관악구,동심어린이집,민간,폐지,151881,서울 관악구 신림13동 711-75 ,02-855-3388,--,0,0,0,0,0,21,0,,,,,1999-12-31,,,2009-02-28
서울특별시,관악구,신원어린이집,민간,폐지,08773,서울특별시 관악구 남부순환로 1544 (신림동)  [신원동],02-867-6700,070-7169-1212,4,227,1,8,0,39,0,37.48291900897029,126.92220753995077,운영,http://cafe.naver.com/sinwon6700,1996-04-04,,,2020-06-25
서울특별시,관악구,가온누리어린이집,민간,폐지,151015,서울특별시 관악구 조원중앙로2길 59 (신림동)  [조원동],02-854-0008,02-854-0544,4,120,0,6,0,39,0,37.48138509,126.9080671,운영,,1997-03-10,,,2016-11-01
서울특별시,관악구,미성어린이집,가정,정상,08769,"서울특별시 관악구 조원로2길 13 1동 112호 (신림동,미성아파트)   [조원동]",02-854-3141,02-863-3141,4,54,0,4,6,18,12,37.482789405620394,126.90291901702917,미운영,http://iseoul.seoul.go.kr/homepage/main.do?stCode=11620000290,2002-12-28,,,
서울특별시,관악구,선민어린이집,법인·단체등,폐지,08819,서울특별시 관악구 대학10길 27 선민교회 2층 (신림동)  [대학동],02-879-0277,02-879-0272,4,315,2,7,0,80,0,37.4676100878,126.9359420362,미운영,http://town.cyworld.com/sunmin,1998-05-25,,,2020-04-30
서울특별시,관악구,관악공동육아 우리동네어린이집,협동,폐지,151815,서울 관악구 봉천11동 180-143 ,02-871-5265,--,0,0,0,0,0,28,0,,,,,2002-05-15,,,2008-03-08
서울특별시,관악구,크레파스어린이집,민간,폐지,151874,서울 관악구 신림8동 518-52호 ,02-862-8362,--,0,0,0,0,0,30,0,,,,,2005-04-06,,,2009-03-24
서울특별시,관악구,예대어린이집,민간,폐지,08747,서울특별시 관악구 양녕로2가길 41 중앙동] (봉천동),02-888-3233,050-4018-2302,13,427,6,15,0,161,0,37.48527424,126.9472057,운영,,2006-02-15,,,2020-01-13
서울특별시,관악구,예삐어린이집,민간,정상,08843,"서울특별시 관악구 문성로 238 1,2층 (신림동)  [신원동]",02-863-7884,--,4,147,0,5,8,39,25,37.47878275690197,126.9298500003728,미운영,,2002-12-16,,,
서울특별시,관악구,예사랑어린이집,민간,폐지,08767,서울특별시 관악구 조원로16길 34 2층 (신림동)  [조원동],02-862-1004,02-2039-1006,5,125,0,5,0,45,0,37.48269850858197,126.9110642292056,운영,,2005-04-28,,,2022-06-30
서울특별시,관악구,미래 어린이집,가정,폐지,08865,"서울특별시 관악구 미성7길 5-6 104호 (신림동,미래한건아파트)   [미성동]",02-852-3030,02-852-3030,3,85,2,4,0,16,0,37.474210648384975,126.91549230971834,미운영,,2005-05-19,,,2020-03-01
서울특별시,관악구,햇님몬테소리어린이집,가정,폐지,08734,"서울특별시 관악구 관악로30길 27 120동 103호(봉천동, 관악푸르지오)  [청림동]",02-883-9277,02-883-9277,3,84,0,4,0,20,0,37.4889676102,126.9606415553,미운영,http://iseoul.seoul.go.kr/homepage/main.do?stCode=11620000301,2003-12-23,,,2019-02-28
서울특별시,관악구,동원어린이집,민간,폐지,151056,서울 관악구 봉천6동 65-2 ,02-875-3457,02-875-8080,0,0,0,0,0,37,0,,,,,1996-04-03,,,2008-12-15
서울특별시,관악구,우리세상 어린이집,민간,폐지,08795,서울특별시 관악구 인헌1나길 3 (봉천동)  [인헌동],02-886-7957,--,7,243,0,16,0,49,0,37.47589803,126.9650625,운영,http://iseoul.seoul.go.kr/homepage/main.do?stCode=11620000305,2000-01-10,,,2019-02-28
서울특별시,관악구,성호놀이방,가정,폐지,151800,서울 관악구 남현동 1085-17 솔본아파트 101호 ,02-3471-5391,--,0,0,0,0,0,20,0,,,,,2001-03-19,,,2009-01-23
서울특별시,관악구,믿음어린이집,민간,폐지,08775,서울특별시 관악구 신원로4길 46 (신림동)  [신원동],02-851-4030,02-859-6990,4,181,0,4,0,49,0,37.47956871,126.9296445,미운영,,1998-10-30,,,2023-03-03
서울특별시,관악구,선의관악종합사회복지관,법인·단체등,폐지,151807,서울 관악구 봉천동 1699-6 선의관악종합사회복지관1층 (성현동) ,02-886-9941,--,1,213,0,0,0,20,0,,,,,2000-03-20,,,2011-03-04
서울특별시,관악구,구립신림어린이집,국공립,정상,08859,서울특별시 관악구 난곡로 67 (신림동)  [난향동],02-853-4487,02-858-4489,5,232,2,11,15,79,76,37.46151952623336,126.91879807502359,미운영,,1981-03-02,,,
서울특별시,관악구,감성아이 어린이집,민간,폐지,08793,서울특별시 관악구 인헌길 32-6 (봉천동)  [인헌동],02-876-0206,02-873-9278,5,106,1,13,0,39,0,37.47398894,126.9666332,미운영,,2002-07-02,,,2020-11-15
서울특별시,관악구,알곡방과후교실어린이집,법인·단체등,정상,08857,서울특별시 관악구 난곡로24길 42 (난곡동) (신림동),02-838-8447,02-864-0185,3,116,0,3,6,37,35,37.46840629,126.9211941,미운영,jmj2108,2006-09-20,,,
서울특별시,관악구,사랑샘어린이집,가정,정상,08862,"서울특별시 관악구 난곡로 55 219동 104호(신림동, 관악산휴먼시아2단지아파트)",02-855-7815,--,4,71,0,4,6,19,14,37.46609523,126.9280393,미운영,인스타주소 @sarang_sam1001,2006-09-29,,,
서울특별시,관악구,종인어린이집,민간,폐지,08801,서울특별시 관악구 솔밭로 20 (봉천동)  [행운동],02-878-1332,02-877-5386,5,193,3,10,0,96,0,37.47907904591596,126.96345962725903,운영,www.jongin.co.kr,1999-01-09,,,2020-12-31
서울특별시,관악구,남부어린이집,민간,폐지,151900,서울 관악구 신림1동 1636-35 영신상가 2층 ,02-863-0316,02-863-0321,0,82,0,0,0,22,0,,,,,1997-08-09,,,2015-04-01
서울특별시,관악구,예일어린이집,민간,폐지,08798,서울특별시 관악구 낙성대역14길 6 1층 (봉천동),02-875-7556,02-873-5828,2,138,0,5,0,32,0,37.47389418,126.9642502,운영,,2006-04-20,,,2019-05-31
서울특별시,관악구,예쁜친구어린이집,가정,폐지,08862,"서울특별시 관악구 난곡로 55 207동 101호(신림동, 관악산휴먼시아2단지아파트)",02-6346-5083,02-6346-5083,4,101,0,4,0,20,0,37.46573725,126.9449295,미운영,,2006-10-04,,,2024-09-30
서울특별시,관악구,꿈여울어린이집,가정,정상,08715,"서울특별시 관악구 은천로 93 207동 102호(봉천동, 벽산블루밍아파트) [은천동]",02-889-8893,02-889-8893,3,56,0,4,6,19,8,37.49029069810669,126.94382435134157,운영,cafe.daum.net/ggum-yeoul,2006-10-12,,,
서울특별시,관악구,슬기어린이집,가정,폐지,151015,서울특별시 관악구 남부순환로159길 5 (신림동)  [신사동],02-852-2770,--,3,51,0,5,0,18,0,37.48372426,126.9202299,미운영,,2004-12-29,,,2022-11-30
서울특별시,관악구,아뜰어린이집,민간,폐지,08718,서울특별시 관악구 봉천로23다길 23 보라매동] (봉천동),02-886-8004,02-886-0090,7,247,2,9,0,90,0,37.4874874,126.936964,운영,http://cafe.daum.net/addeul8004,2006-11-09,,,2021-03-01
서울특별시,관악구,신원어린이집방과후교실,법인·단체등,폐지,151869,서울 관악구 신림1동 1577-3 ,02-867-6700,02-862-2009,0,50,0,0,0,60,0,,,,,2006-11-01,,,2010-10-01
서울특별시,관악구,초록가정어린이집,가정,폐지,151050,서울특별시 관악구 봉천로23가길 3 (봉천동)  [보라매동],02-872-0208,02-872-0208,4,92,0,5,0,20,0,37.48719894,126.9351487,운영,,2002-10-01,,,2015-08-19
서울특별시,관악구,둥지어린이집,민간,폐지,151872,서울 관악구 신림4동 481-5호 2층 ,02-868-3166,02-868-3166,3,148,0,0,0,34,0,,,,,1996-03-14,,,2015-04-01
서울특별시,관악구,예원어린이집,가정,폐지,08745,서울특별시 관악구 중앙1길 22 중앙동] (봉천동),02-884-8208,--,3,54,0,3,0,12,0,37.48395781,126.9528834,미운영,,1994-06-10,,,2019-03-02
서울특별시,관악구,야베스어린이집,가정,폐지,151015,서울특별시 관악구 중앙1길 0 신림동376-13[삼성동](신림동),02-883-1129,02-882-2387,3,60,0,0,0,13,0,37.47140706,126.9296479,미운영,,2006-09-05,,,2013-08-01
서울특별시,관악구,싱글벙글어린이집,가정,정상,08831,"서울특별시 관악구 청룡길 78 103-101(봉천동,서울대입구아이원)   [청룡동]",02-888-7367,02-888-7367,3,64,0,4,7,20,10,37.4783116175,126.945375416,미운영,cafe.naver.com/smile7367,2006-12-28,,,
서울특별시,관악구,꿀송이 어린이집,가정,폐지,151050,서울특별시 관악구 성현로 80 관악드림타운아파트 106동104호(봉천동)  [성현동],02-874-2425,02--,3,57,0,5,0,20,0,37.489845,126.95296,미운영,club.cyworld.com/angel2425,2006-09-18,,,2017-02-28
서울특별시,관악구,드림타운어린이집,가정,폐지,08862,"서울특별시 관악구 난곡로 55 224동 103호 (신림동,관악산휴먼시아)  [난향동]",02-838-7974,--,5,114,0,5,0,20,0,37.45974045390131,126.92075313880944,미운영,,2006-12-18,,,2019-02-28
서울특별시,관악구,미래방과후교실어린이집,법인·단체등,폐지,08792,서울특별시 관악구 낙성대로3길 26 서울순복음교회2층 미래방과후교실,02-889-3133,02-886-5332,2,323,0,2,0,36,0,37.47411323,126.9598504,미운영,,2006-05-23,,,2016-01-31
서울특별시,관악구,휴먼시아어린이집,가정,폐지,08862,"서울특별시 관악구 난곡로 55 201동 101호(신림동, 관악산휴먼시아2단지아파트)  [난향동]",02-3281-7723,02-866-5859,4,107,0,4,0,20,0,37.4597404539,126.9207531388,미운영,,2006-10-26,,,2022-03-18
서울특별시,관악구,토마토어린이집,가정,폐지,151050,"서울특별시 관악구 남부순환로248길 78 101호 (봉천동,아이펠리스)  [인헌동]",02-886-2696,02-885-2696,4,97,0,4,0,20,0,37.4728169,126.966144,미운영,,2007-01-04,,,2017-02-28
서울특별시,관악구,반디어린이집,가정,폐지,08833,"서울특별시 관악구 관악로 133 102-103(봉천동,건영아파트)   [청룡동]",02-889-7237,02-889-7237,4,66,0,5,0,19,0,37.47692696609447,126.95206474766094,미운영,,2007-01-26,,,2016-06-30
서울특별시,관악구,해랑어린이집,가정,정상,08862,"서울특별시 관악구 난곡로 55 216동 101호(신림동, 관악산휴먼시아아파트)  [난향동]",02-6264-2116,0504-047-2116,3,74,0,4,8,17,15,37.45974045390131,126.92075313880944,미운영,,2007-02-01,,,
서울특별시,관악구,씽씽어린이집,가정,정상,08824,"서울특별시 관악구 대학18길 6 101동 208호(신림동, 금호타운1차)  [대학동]",02-888-7721,--,3,97,0,5,5,19,11,37.4655457276,126.9373545078,미운영,,1999-06-12,,,
서울특별시,관악구,왕성어린이집,민간,폐지,08778,서울특별시 관악구 신림로58길 10 서원동] (신림동),02-875-8302,02-883-1760,4,154,0,15,0,43,0,37.48209886081846,126.93051170843219,미운영,,2005-01-26,,,2023-03-31
서울특별시,관악구,123어린이집,가정,정상,08725,"서울특별시 관악구 성현로 80 123동 102호(봉천동, 관악드림타운)  [성현동]",02-887-2233,02-887-2266,4,65,1,4,7,20,12,37.48984779845702,126.95298370150098,미운영,http://blog.naver.com/idpine,2007-01-10,,,
서울특별시,관악구,꿈꾸는새싹어린이집,가정,정상,08809,"서울특별시 관악구 남현길 91 103동 102호(남현동, 우림루미아트)  [남현동]",02-535-9799,--,3,84,0,4,6,20,18,37.4726993546,126.9752695156,미운영,http://iseoul.seoul.go.kr/homepage/main.do?stCode=11620000342,2007-03-08,,,
서울특별시,관악구,해나린어린이집,가정,폐지,08750,"서울특별시 관악구 봉천로 387 110동 102호(봉천동, 두산아파트)  [은천동]",02-3285-2831,02-3285-2831,3,70,1,4,0,20,0,37.48376326,126.9427076328,미운영,,2007-03-08,,,2020-03-02
서울특별시,관악구,예수품은방과후교실어린이집,법인·단체등,폐지,08846,서울특별시 관악구 양지길 40-3 (삼성동) (신림동),02-888-3088,02-888-3088,1,72,0,1,0,20,0,37.47157473660223,126.9299471745508,미운영,,2007-03-15,,,2016-12-31
서울특별시,관악구,아기샘어린이집,가정,정상,08845,"서울특별시 관악구 신림로29길 3-20 107동 104호(신림동, 신림현대아파트)",02-876-1301,02-876-1301,3,64,0,5,8,20,11,37.475158319802674,126.9331282265508,운영,"	 https://cafe.naver.com/akisam",2007-04-06,,,
서울특별시,관악구,기쁨샘몬테소리어린이집,가정,폐지,08862,"서울특별시 관악구 난곡로 55 232동 104호(신림동, 관악산휴먼시아아파트)  [난향동]",02-868-9807,--,3,84,0,4,0,20,0,37.4597404539,126.9207531388,미운영,,2013-11-27,,,2023-02-15
서울특별시,관악구,행복한기쁨어린이집,민간,폐지,151805,서울 관악구 봉천동 41-62   [성현동] ,02-872-3218,--,3,129,0,0,0,23,0,,,,,2007-05-07,,,2012-05-16
서울특별시,관악구,비젼놀이방,가정,폐지,151802,서울특별시 관악구 남부순환로262길 10-8 1층(남현동)  [남현동],02-583-7028,--,2,90,0,0,0,13,0,37.47580591,126.974546,미운영,,2004-12-08,,,2014-05-30
서울특별시,관악구,은영어린이집,가정,폐지,151775,서울 관악구 봉천6동 우성아파트 102동 107호 ,02-882-3007,02-882-3007,0,0,0,0,0,20,0,,,,,2007-07-30,,,2015-04-01
서울특별시,관악구,해뜨는어린이집,가정,폐지,151015,"서울특별시 관악구 관천로27길 2 103-103(신림동,우방아파트)   [신사동]",02-859-7906,02-859-7906,3,59,0,0,0,13,0,37.48886468,126.9188476,미운영,,2007-08-01,,,2015-08-31
서울특별시,관악구,비아어린이집,가정,폐지,151778,서울 관악구 봉천동 관악벽산블루밍아파트 102동 102호  [은천동] ,02-877-2070,02-877-2070,3,76,0,0,0,20,0,,,,,2003-10-30,,,2010-12-30
서울특별시,관악구,딩동댕어린이집,가정,폐지,08783,서울특별시 관악구 쑥고개로 5 2층 (신림동) [서원동],02-882-5162,02-887-2141,3,33,0,0,0,15,0,37.47736001849813,126.93781495804653,미운영,,2002-04-25,,,2017-06-13
서울특별시,관악구,삼성산행복한어린이집,가정,폐지,08847,"서울특별시 관악구 호암로 399 309동 105호(신림동, 삼성산주공아파트)",02-6268-1351,02-6268-1351,4,85,0,5,0,19,0,37.46240473,126.9261748,미운영,,2007-11-15,,,2021-03-31
서울특별시,관악구,해달별어린이집,민간,폐지,08706,"서울특별시 관악구 관천로22길 43 1,2,3층 [신림동] (신림동)",02-882-5953,02-883-5953,5,162,1,8,0,34,0,37.48926857,126.9251911,미운영,,2007-12-01,,,2023-03-31
서울특별시,관악구,뽀뽀뽀어린이집,가정,폐지,08862,"서울특별시 관악구 난곡로 55 213동 102호(신림동, 관악산휴먼시아2단지아파트)",02-6084-2999,--,3,114,0,4,0,19,0,37.46875571,126.9457304,미운영,,2007-12-03,,,2020-04-30
서울특별시,관악구,사랑맘 어린이집,가정,폐지,08730,"서울특별시 관악구 관악로 304 120동 103호(봉천동, 현대아파트)",02-882-2810,02-882-2810,4,84,0,0,0,19,0,37.49220103,126.9583365,미운영,,2008-01-02,,,2017-05-31
서울특별시,관악구,보라빛어린이집,가정,정상,08793,서울특별시 관악구 남부순환로246나길 15-2 (봉천동)  [인헌동],02-887-2829,02-887-2829,5,106,0,6,7,20,14,37.4749817538,126.96511218,미운영,http://iseoul.seoul.go.kr/homepage/main.do?stCode=11620000374#nohref,2008-01-18,,,
서울특별시,관악구,현대키즈어린이집,가정,폐지,08845,"서울특별시 관악구 신림로29길 3-20 104동 101호(신림동, 신림현대아파트)  [서림동]",02-885-1156,02-885-1156,3,72,0,4,0,19,0,37.475322912470865,126.93143935957235,미운영,,2008-03-10,,,2021-06-30
서울특별시,관악구,건강한어린이집,가정,폐지,08726,"서울특별시 관악구 관악로 285 107동 103호(봉천동, 성현동아아파트)  [성현동]",02-6080-8058,050-4473-1879,3,63,1,4,0,20,0,37.4893910402,126.9554444697,미운영,,2008-03-25,,,2019-02-28
서울특별시,관악구,포그니어린이집,가정,정상,08845,"서울특별시 관악구 신림로29길 3-20 106동 113호(신림동, 신림현대아파트)  [서림동]",02-872-7772,02-883-7778,4,70,0,5,6,20,15,37.4746259795,126.9338061611,미운영,http://cafe.naver.com/poguny,2008-03-10,,,
서울특별시,관악구,해든어린이집,가정,정상,08835,서울특별시 관악구 복은길 109 101호 (신림동)  [서림동],02-877-6549,02-876-6548,3,61,0,4,6,20,9,37.47513846388831,126.94201781602237,미운영,,2008-05-01,,,
서울특별시,관악구,해오름어린이집,민간,폐지,08802,서울특별시 관악구 남부순환로 1969 (봉천동)  [행운동],02-889-7253,02-887-4691,5,218,2,7,0,70,0,37.4757826315,126.9678657816,운영,,2008-05-28,,,2022-03-03
서울특별시,관악구,별꿈어린이집,가정,폐지,151796,"서울특별시 관악구 미성길 122 101동 106호(신림동, 쌍용아파트)  [미성동]",02-899-5471,--,3,35,0,0,0,13,0,37.47227882,126.911841,미운영,,2008-05-28,,,2016-07-01
서울특별시,관악구,아기랑어린이집,가정,정상,08862,"서울특별시 관악구 난곡로 55 205동 103호(신림동, 관악산휴먼시아2단지아파트)",02-864-5825,--,4,114,0,6,7,20,14,37.458939678408875,126.9197502975858,미운영,,2008-06-23,,,
서울특별시,관악구,연수어린이집,민간,폐지,08727,서울특별시 관악구 관악로 273  -18 연수어린이집,02-888-7953,--,6,236,0,4,0,55,0,37.48849722,126.9572572,운영,,2008-06-13,,,2020-05-31
서울특별시,관악구,소나무어린이집,가정,정상,08864,서울특별시 관악구 난곡로45길 28 (신림동)  [미성동],02-866-0301,02-852-6504,3,63,0,4,7,18,14,37.4763361039,126.9142056239,미운영,,2013-11-19,,,
서울특별시,관악구,아기진주어린이집,가정,폐지,08829,서울특별시 관악구 서림1길 41 서림동] (신림동),02-879-2680,02-6439-2689,3,69,0,4,0,16,0,37.47555922567787,126.94019055823315,미운영,,2008-09-29,,,2021-11-23
서울특별시,관악구,엄마무릎어린이집,가정,폐지,08770,"서울특별시 관악구 남부순환로 1430 113동 104호(신림동, 신림푸르지오)  [미성동]",02-851-0915,02-851-0915,3,123,0,4,0,19,0,37.4792370923,126.9090378048,미운영,,2008-10-13,,,2019-04-30
서울특별시,관악구,선한어린이집,가정,폐지,08803,서울특별시 관악구 남부순환로256라길 25 한일유앤아이아파트 101-101호(남현동)   [남현동],070-7719-1240,02-586-1240,3,64,0,4,0,19,0,37.47162861861218,126.9737143435629,미운영,iseoul.seoul.go.kr/homepage/main.do?stCode=11620000392,2008-11-04,,,2023-03-17
서울특별시,관악구,관악구청직장어린이집,직장,정상,08832,서울특별시 관악구 관악로 145 관악구청 별관 2층 (봉천동)  [청룡동],02-886-5006,02-871-4177,4,144,1,8,12,49,30,37.4782097744,126.9515031667,미운영,rhksdkr886@naver.com,2008-12-01,,,
서울특별시,관악구,피카소 어린이집,가정,폐지,08735,"서울특별시 관악구 관악로30길 12 108동101호(봉천동,봉천우성아파트)  [행운동]",02-876-6057,02-876-6057,3,40,0,3,0,15,0,37.4840985767,126.9606848133,미운영,,2009-03-02,,,2023-02-28
서울특별시,관악구,성약어린이집,민간,폐지,08786,서울특별시 관악구 청룡7길 33 1층 [청룡동] (봉천동),02-882-2006,02-877-4531,5,159,0,5,0,35,0,37.48050423,126.9478278,운영, http://club.cyworld.com/Sungyak-Childre,2009-03-23,,,2018-03-01
서울특별시,관악구,보배몬테소리어린이집,가정,폐지,08856,서울특별시 관악구 난곡로24다길 7 (신림동)  [난곡동],02-3281-2811,02-3281-2811,4,149,0,6,0,20,0,37.4691981790529,126.92181932694542,미운영,http://cafe.daum.net/bobekids,2009-03-09,,,2020-09-23
서울특별시,관악구,튼튼어린이집,가정,폐지,151015,서울특별시 관악구 난곡로66가길 17 (신림동)  [신사동],02-855-1543,--,4,70,0,0,0,20,0,37.4833338,126.9145922,미운영,,2009-04-08,,,2015-04-01
서울특별시,관악구,송이어린이집,직장,폐지,08843,서울특별시 관악구 문성로38길 70-4 [신원동] (신림동),02-859-8933,02-839-8358,4,104,0,3,0,37,0,37.47526245,126.9301242,운영,,2009-05-01,,,2018-05-15
서울특별시,관악구,솔향기어린이집,가정,폐지,08858,서울특별시 관악구 난곡로15길 22-4 (신림동)  [난곡동],02-864-9363,02-864-9363,3,100,1,4,0,18,0,37.4674053673,126.9194337791,미운영,https://iseoul.seoul.go.kr/homepage/main.do?stCode=11620000402,1995-09-26,,,2022-03-01
서울특별시,관악구,예쁜아이어린이집,가정,폐지,151786,서울 관악구 신림8동 신도브래뉴아파트 101동 102호 ,02-852-0083,--,0,1,0,0,0,18,0,,,,,2009-07-03,,,2009-09-10
서울특별시,관악구,신림사임당어린이집,민간,정상,08771,서울특별시 관악구 난곡로59길 16 (신림동)  [미성동],02-852-9900,02-867-1279,4,103,12,14,11,33,29,37.4800403804,126.9132833458,운영,http://iseoul.seoul.go.kr/homepage/main.do?stCode=11620000404,2009-06-26,,,
서울특별시,관악구,올리브어린이집,가정,정상,08729,"서울특별시 관악구 은천로 137 1동 102호(봉천동,관악유앤아이)  [성현동]",02-882-0628,02-872-0628,3,54,0,6,8,20,14,37.4867978086,126.9505840124,미운영,,2009-07-14,,,
서울특별시,관악구,구립아이뜰어린이집,국공립,정상,08750,서울특별시 관악구 봉천로33나길 30 은천동 복합청사 1층 [은천동],02-877-9179,02-6956-9178,5,195,1,15,15,59,48,37.485305640589225,126.94240795689444,미운영,http://cafe.daum.net/ideel,2010-02-11,,,
서울특별시,관악구,늘푸른어린이집,민간,정상,08785,서울특별시 관악구 청룡8길 10 청룡동] (봉천동),02-3285-6279,02-3285-6279,4,160,0,5,6,35,15,37.48007722,126.945412,미운영,,2010-03-08,,,
서울특별시,관악구,은하수어린이집,협동,폐지,08729,서울특별시 관악구 은천로25길 33 성현동] (봉천동),070-4132-3739,02-889-3738,4,101,0,1,0,37,0,37.48823455,126.9494755,운영,,2010-06-01,,,2017-03-14
서울특별시,관악구,보람어린이집,가정,폐지,08730,"서울특별시 관악구 관악로 304 118동 101호(봉천동, 현대아파트)",02-6275-7942,--,4,61,0,5,0,20,0,37.49220103,126.9583365,미운영,,2010-12-23,,,2017-02-28
서울특별시,관악구,구립성현햇살어린이집,국공립,정상,08727,서울특별시 관악구 관악로37길 65 (봉천동)  [성현동],02-878-6633,02-878-6611,6,274,2,20,12,75,32,37.4868935964,126.9558439588,미운영,,2011-01-01,,,
서울특별시,관악구,서울대학교어린이보육지원센터 느티나무어린이집,직장,정상,08826,서울특별시 관악구 관악로 1 (봉천동) [낙성대동],02-880-5798,02-877-8717,14,710,5,58,34,250,142,37.46803850908603,126.95929603302525,미운영,,2011-07-22,,,
서울특별시,관악구,예쁜아이어린이집,민간,폐지,08734,서울특별시 관악구 관악로30길 27 관악푸르지오아파트 관리동 1층,02-875-9199,02-875-9198,2,80,0,5,0,30,0,37.486146933191,126.961319208688,미운영,,2012-04-03,,,2017-10-31
서울특별시,관악구,보라매삼성어린이집,가정,폐지,08709,서울특별시 관악구 보라매로 62 보라매삼성아파트 107-105,070-7801-7805,02-876-7805,3,55,0,5,0,19,0,37.4944090531178,126.927621385269,미운영,,2012-04-24,,,2020-02-29
서울특별시,관악구,올리비아어린이집,가정,정상,08734,서울특별시 관악구 관악로30길 27 관악푸르지오아파트107동103호,02-6265-4996,--,3,67,0,4,6,20,17,37.486146933191,126.961319208688,미운영,http://iseoul.seoul.go.kr/portal/mainCall.do,2012-04-24,,,
서울특별시,관악구,하람어린이집,가정,정상,08862,"서울특별시 관악구 난곡로 55 202동 101호(관악산휴먼시아,신림동)",02-838-7723,--,3,52,0,4,4,17,11,37.4584507476442,126.920436672485,미운영,http://iseoul.seoul.go.kr/images/portal/contents/btn_home.gif,2012-04-23,,,
서울특별시,관악구,아이린어린이집,가정,정상,08734,서울특별시 관악구 관악로30길 27 관악푸르지오아파트119동103호,02-878-2323,02-879-2323,3,65,0,4,5,20,15,37.486146933191,126.961319208688,미운영,http://iseoul.seoul.go.kr/homepage/main.do?stCode=11620000477,2012-04-27,,,
서울특별시,관악구,꿈초롱어린이집,가정,폐지,08730,서울특별시 관악구 관악로 304 현대아파트 123동 104호,02-876-2207,--,4,89,0,5,0,20,0,37.492051648233236,126.95771348805392,미운영,https://iseoul.seoul.go.kr/homepage/main.do?stCode=11620000478,2012-05-07,,,2023-02-28
서울특별시,관악구,한솔어린이집,가정,정상,08730,서울특별시 관악구 관악로 304 현대아파트113동101호,02-882-1894,--,4,73,0,5,8,20,18,37.4930479784138,126.959542444241,미운영,,2012-05-07,,,
서울특별시,관악구,별이랑어린이집,가정,폐지,08793,서울특별시 관악구 낙성대역길 19 동원낙성대아파트 101-106,02-888-2829,02-887-2829,3,80,0,4,0,19,0,37.4764560274247,126.962115771934,미운영,,2012-05-11,,,2019-02-28
서울특별시,관악구,남성교회어린이집,법인·단체등,정상,08807,서울특별시 관악구 남현1가길 34 ,02-584-5579,02-583-9624,8,535,1,15,14,88,46,37.474279754104,126.97762284478024,미운영,,2012-06-05,,,
서울특별시,관악구,아이스쿨어린이집,가정,폐지,08715,서울특별시 관악구 은천로 93 벽산블루밍아파트 202-101,02-882-3567,--,3,66,0,0,0,20,0,37.48771566480708,126.94597248317112,미운영,,2012-06-05,,,2015-08-04
서울특별시,관악구,베베타운어린이집,가정,폐지,08725,"서울특별시 관악구 성현로 80 104-101(봉천동,관악드림타운)",070-7801-9057,070-7801-9057,4,58,0,4,0,20,0,37.48984510185845,126.95295431907176,미운영,http://cafe.daum.net/bebetown104101,2012-05-30,,,2022-01-13
서울특별시,관악구,참어린이집,가정,정상,08845,서울특별시 관악구 신림로29길 8 신림현대아파트 110동 102호,02-875-7992,02-875-7992,4,58,0,4,5,20,5,37.47560800801229,126.93367754529991,미운영,https://iseoul.seoul.go.kr/homepage/seoul/sisulInfo/adminIntro.do?stCode=11620000484,2012-05-30,,,
서울특별시,관악구,꽃샘어린이집,가정,폐지,08861,"서울특별시 관악구 난곡로 30 106동 106호(신림동,관악산휴먼시아1단지)[난향동]",02-866-5269,02-866-5269,4,55,0,4,0,19,0,37.46183566760308,126.92153168107181,미운영,,2012-06-07,,,2020-02-29
서울특별시,관악구,큰나무이야기어린이집,민간,폐지,08803,"서울특별시 관악구 남부순환로256라길 25 103동 101호,201호(남현동,한일유앤아이아파트상가동)",02-581-0020,--,3,119,0,6,0,23,0,37.471629949898094,126.97371229811264,미운영,,2012-06-18,,,2020-02-29
서울특별시,관악구,성우꼬마숲어린이집,가정,폐지,08780,서울특별시 관악구 남부순환로198길 7 성우아파트 101동 106호,02-886-3402,02-877-3402,3,51,0,5,0,19,0,37.483635083116745,126.9371926903611,미운영,http://www.littleforest.co.kr/home/seowon,2012-06-25,,,2020-06-03
서울특별시,관악구,우성어린이집,가정,폐지,08735,서울특별시 관악구 관악로30길 12 104동 106호(봉천동 봉천우성아파트),02-888-7042,02-888-7041,3,84,0,4,0,20,0,37.48608828025888,126.95851063765703,미운영,,2012-06-25,,,2020-02-29
서울특별시,관악구,아이봄어린이집,가정,폐지,08751,"서울특별시 관악구 은천로 86 208동 101호(봉천동, 두산아파트)",02-883-2081,--,4,65,0,5,0,20,0,37.48656121693301,126.94529704554114,미운영,http://cafe.naver.com/ibomkid,2012-06-28,,,2019-02-28
서울특별시,관악구,아이숲어린이집,가정,정상,08715,서울특별시 관악구 은천로 93 벽산블루밍 아파트 209-102,02-6265-6605,--,4,57,0,5,7,20,10,37.491038269257366,126.94326971862382,운영,,2012-07-06,,,
서울특별시,관악구,조앤아이어린이집,가정,폐지,08735,"서울특별시 관악구 관악로30길 12 103동 101호(봉천동, 봉천우성아파트)",02-883-0312,--,4,72,0,5,0,20,0,37.48495338680451,126.95953340497802,미운영,,2012-07-23,,,2018-03-01
서울특별시,관악구,솔어린이집,가정,폐지,08725,서울특별시 관악구 성현로 80 113동 105호(봉천동  관악드림타운),02-887-9977,02-887-9191,4,72,0,5,0,20,0,37.48928626872491,126.95243906999879,미운영,,2012-08-14,,,2019-02-28
서울특별시,관악구,성현동사임당어린이집,가정,폐지,08726,서울특별시 관악구 관악로 285 106동 103호(봉천동 동아아파트),02-6672-7779,--,3,85,0,4,0,19,0,37.489391040230316,126.95544446967143,미운영,http://iseoul.seoul.go.kr/homepage/main.do?stCode=11620000493,2012-08-28,,,2020-04-29
서울특별시,관악구,꿈꾸는예지어린이집,민간,폐지,08856,서울특별시 관악구 난곡로26길 78 ,02-857-1616,070-4170-4616,8,187,0,10,0,45,0,37.46958591119731,126.92394706338834,운영,,2012-11-01,,,2024-04-01
서울특별시,관악구,샤인스쿨어린이집,민간,폐지,08722,서울특별시 관악구 당곡길 45-3 ,02-888-1143,02-871-3321,5,185,2,8,0,69,0,37.49080491428225,126.92835520521379,운영,,2012-11-09,,,2023-03-31
서울특별시,관악구,그린나래어린이집,가정,폐지,08828,서울특별시 관악구 쑥고개로2길 48 ,02-884-2141,--,3,45,0,4,0,16,0,37.475437079198784,126.93927082325348,미운영,,2012-12-28,,,2024-02-02
서울특별시,관악구,구립두드림어린이집,국공립,정상,08767,서울특별시 관악구 조원로18길 26 ,02-862-1680,02-830-8638,4,136,1,8,9,51,41,37.4827655663051,126.91337338502322,미운영,,2013-03-18,,,
서울특별시,관악구,구립관악어린이집,국공립,폐지,08845,서울특별시 관악구 신림로39길 17 ,02-888-0830,02-888-0840,4,126,1,8,0,44,0,37.47655963914447,126.93577880440787,미운영,,2013-03-18,,,2022-09-01
서울특별시,관악구,꿈드림어린이집,가정,폐지,08860,서울특별시 관악구 난곡로 90-39 월드아파트 101호,02-856-3008,02-856-3008,3,52,1,4,0,19,0,37.46307779300022,126.9196901799527,미운영,,2013-03-14,,,2019-02-28
서울특별시,관악구,구립예촌어린이집,국공립,정상,08807,서울특별시 관악구 남현1가길 29 남현동 복합청사내 1층,02-3486-4333,--,5,332,2,10,11,59,49,37.4745559518,126.9778736051,미운영,,2013-06-01,,,
서울특별시,관악구,꿈나무어린이집,가정,폐지,08816,서울특별시 관악구 신림로3가길 45-24 청광아파트 101동 104호,02-878-5403,02-877-5403,3,60,1,4,0,19,0,37.46760244251916,126.94207789641368,미운영,,2013-05-01,,,2024-07-24
서울특별시,관악구,빛나는어린이집,가정,폐지,08781,서울특별시 관악구 신림로44길 25 1층,070-7786-2076,--,3,41,1,4,0,15,0,37.47861350555325,126.93503083280805,미운영,,2013-05-14,,,2019-04-30
서울특별시,관악구,리틀브레인어린이집,가정,정상,08725,"서울특별시 관악구 성현로 80 133-101(관악드림타운, 봉천동)",02-884-8843,02-884-8843,3,68,0,4,8,20,19,37.49034069736713,126.94981446438117,미운영,http://iseoul.seoul.go.kr/homepage/main.do?stCode=11620000503,2013-05-27,,,
서울특별시,관악구,꿈마루어린이집,가정,폐지,08725,서울특별시 관악구 성현로 80 105-102,02-878-9056,02-878-9056,3,69,0,3,0,13,0,37.48984510185845,126.95295431907176,미운영,,2013-06-21,,,2016-08-01
서울특별시,관악구,아트어린이집,가정,폐지,08725,"서울특별시 관악구 성현로 80 102-104 (봉천동, 관악드림타운) [성현동]",02-885-0306,02-885-0305,3,92,0,4,0,20,0,37.48984510185845,126.95295431907176,미운영,http://iseoul.seoul.go.kr/homepage/main.do?stCode=11620000505,2013-06-28,,,2018-12-31
서울특별시,관악구,나래어린이집,가정,폐지,08734,서울특별시 관악구 관악로30길 27 112동 102호(봉천동 관악푸르지오아파트),070-7583-7581,--,4,72,0,4,0,20,0,37.48896863571695,126.96064378727831,미운영,,2013-10-10,,,2017-02-28
서울특별시,관악구,그린업어린이집,가정,정상,08734,서울특별시 관악구 관악로30길 27 111동 101호(봉천동 관악푸르지오아파트),02-875-7578,02-875-9579,4,65,1,4,8,20,17,37.48896863571695,126.96064378727831,미운영,https://iseoul.seoul.go.kr/homepage/main.do?stCode=11620000507,2013-07-15,,,
서울특별시,관악구,자연어린이집,가정,폐지,08728,서울특별시 관악구 은천로35나길 25-4 ,02-889-0888,02-889-0884,3,66,0,4,0,15,0,37.48695355212353,126.95246087086772,미운영,,2013-07-26,,,2023-08-31
서울특별시,관악구,우주어린이집,가정,폐지,08740,서울특별시 관악구 남부순환로231길 46-5 ,02-885-6004,02-885-6004,3,50,0,4,0,15,0,37.4811749722114,126.95854270406191,미운영,,2013-08-29,,,2022-10-14
서울특별시,관악구,수피아어린이집,가정,정상,08797,"서울특별시 관악구 인헌12길 46-1 208-103 (봉천동,은천아파트) [인헌동]",02-6014-1212,--,3,69,0,3,5,16,9,37.470663949170515,126.96456252526965,미운영,http://iseoul.seoul.go.kr/homepage/main.do?stCode=11620000510,2013-09-02,,,
서울특별시,관악구,봄빛가득한어린이집,가정,정상,08815,서울특별시 관악구 신림로7길 33 102-103,02-885-5999,02-885-5999,3,65,0,4,7,19,17,37.46910158401461,126.9417918712679,미운영,,2013-11-27,,,
서울특별시,관악구,아람어린이집,가정,폐지,08734,서울특별시 관악구 관악로30길 27 관악푸르지오아파트 106동 102호,02-6747-3027,--,3,39,0,0,0,13,0,37.48896761024195,126.96064155530931,미운영,,2014-01-21,,,2015-11-30
서울특별시,관악구,참사랑어린이집,가정,폐지,08730,서울특별시 관악구 관악로40길 60 122동 101호,02-877-8913,02-878-8914,4,54,0,4,0,19,0,37.49333931104923,126.96067997001874,미운영,https://www.kidsnote.com/index_login.php,2014-03-03,,,2020-04-30
서울특별시,관악구,수도방위사령부 한울어린이집,직장,정상,08810,서울특별시 관악구 과천대로 851 ,02-524-1614,02-522-3374,8,324,2,27,19,122,53,37.466545551998514,126.98727630664436,운영,,2014-03-19,,,
서울특별시,관악구,휴먼시아샛별어린이집,가정,폐지,08862,서울특별시 관악구 난곡로 55 218동 103호,02-855-2227,000-0000-000,3,85,0,4,0,19,0,37.45974045390131,126.92075313880944,미운영,,2014-06-20,,,2020-03-17
서울특별시,관악구,구립아름꿈노아어린이집,국공립,정상,08767,서울특별시 관악구 남부순환로145길 6 (조원동),02-852-3338,02-852-3336,6,200,1,14,8,60,27,37.481856141894084,126.91237222706866,미운영,http://iseoul.seoul.go.kr/homepage/main.do?stCode=11620000517,2015-04-01,,,
서울특별시,관악구,구립하늘빛어린이집,국공립,정상,08734,서울특별시 관악구 청림5길 28 관악푸르지오아파트 2단지 관리동,02-885-1174,02-875-1173,2,58,0,3,6,20,7,37.48959458735924,126.96027034387413,미운영,,2015-05-01,,,
서울특별시,관악구,구립색동어린이집,국공립,정상,08720,서울특별시 관악구 봉천로17길 5-16 ,02-876-8506,02-876-8502,6,186,2,11,12,62,31,37.48850384402732,126.93156865526006,미운영,,2015-06-01,,,
서울특별시,관악구,구립명지어린이집,국공립,정상,08734,서울특별시 관악구 관악로30길 27 관악푸르지오아파트 121-104,02-6332-3688,02-6332-3687,4,84,0,6,9,20,20,37.485799349380024,126.96104517493111,미운영,,2015-09-01,,,
서울특별시,관악구,구립해뜨는어린이집,국공립,정상,08703,서울특별시 관악구 관천로27길 2 우방아파트 103-103,02-859-7906,02-859-7905,4,63,0,4,6,15,11,37.48846321347776,126.91864227820252,미운영,http://iseoul.seoul.go.kr/homepage/main.do?stCode=11620000521,2015-09-01,,,
서울특별시,관악구,구립까치산어린이집,국공립,정상,08735,서울특별시 관악구 행운10길 21 관악파크푸르지오아파트 102동 1층,02-871-1376,02-871-1375,3,73,0,6,9,25,25,37.48222496622753,126.96217822418967,미운영,,2015-08-26,,,
서울특별시,관악구,구립마엘향어린이집,국공립,폐지,08858,서울특별시 관악구 난곡로35길 60 구립마엘향어린이집,02-857-3553,02-857-3553,5,151,1,16,0,57,0,37.47068007252273,126.91744970910918,미운영,www.childcare.go.kr,2015-11-01,,,2023-12-31
서울특별시,관악구,아리솔어린이집,민간,폐지,08865,서울특별시 관악구 미성7길 20 ,02-852-7766,--,8,215,1,15,0,79,0,37.47420624024352,126.91437537363796,운영,https://arisol.kidsnote.ac/home/main,2016-03-01,,,2020-09-10
서울특별시,관악구,구립운서어린이집,국공립,정상,08865,서울특별시 관악구 미성길 60 두영아파트 103호,02-858-6999,--,3,84,0,8,9,20,13,37.47449777269871,126.91383239552645,미운영,https://iseoul.seoul.go.kr/homepage/main.do?stCode=11620000525,2016-04-01,,,
서울특별시,관악구,구립레미안어린이집,국공립,폐지,08725,서울특별시 관악구 성현로 80 관악드림타운아파트 144-101,02-872-5034,02-872-5034,4,84,0,4,0,20,0,37.490707230414785,126.94835837083128,미운영,,2016-04-01,,,2022-03-01
서울특별시,관악구,구립무지개어린이집,국공립,정상,08700,서울특별시 관악구 조원로11길 24 우민조원아파트 101-101,02-868-1373,02-852-0975,3,139,0,6,8,20,20,37.484202278050006,126.907525749504,미운영,,2016-07-01,,,
서울특별시,관악구,구립반디어린이집,국공립,정상,08833,서울특별시 관악구 관악로 133 건영아파트 102-103,02-889-7237,02-889-7237,4,66,0,5,8,20,19,37.47692696609447,126.95206474766094,미운영,,2016-07-01,,,
서울특별시,관악구,구립초롱별어린이집,국공립,정상,08864,서울특별시 관악구 난곡로45길 5 ,02-855-0771,02-853-0771,6,599,1,16,18,99,66,37.476261267,126.9153814691,미운영,http://iseoul.seoul.go.kr/homepage/main.do?stCode=11620000529,2017-01-01,,,
서울특별시,관악구,구립아람어린이집,국공립,정상,08744,서울특별시 관악구 관악로 229-12 ,02-877-8112,02-877-8130,6,172,1,16,17,65,64,37.4852750549,126.9549675083,미운영,,2017-01-01,,,
서울특별시,관악구,구립행운어린이집,국공립,정상,08736,서울특별시 관악구 행운1라길 9 ,02-877-4234,02-878-4234,6,534,1,16,14,68,36,37.4832358346,126.9567415811,미운영,seon4234@daum.net,2017-01-01,,,
서울특별시,관악구,구립용꿈어린이집,국공립,정상,08778,서울특별시 관악구 신림로58길 68 ,02-877-4587,02-877-4587,7,289,1,18,19,94,63,37.4823854242,126.9337224336,미운영,,2017-01-01,,,
서울특별시,관악구,구립보라매어린이집,국공립,정상,08709,서울특별시 관악구 당곡6길 63 ,02-889-6004,02-889-6004,6,424,1,22,14,68,45,37.4928677834,126.9306419506,미운영,http://iseoul.seoul.go.kr/homepage/main.do?stCode=11620000533,2017-01-01,,,
서울특별시,관악구,구립마루어린이집,국공립,정상,08715,서울특별시 관악구 은천로 93 벽산블루밍아파트 503동,02-883-9900,02-883-3030,4,200,1,16,16,57,53,37.48851630642436,126.94508643616872,미운영,,2016-12-05,,,
서울특별시,관악구,구립나래어린이집,국공립,정상,08734,서울특별시 관악구 관악로30길 27 관악푸르지오아파트 112-102,070-7583-7581,--,3,72,1,4,10,20,20,37.4889676102,126.9606415553,미운영,,2017-03-01,,,
서울특별시,관악구,구립보람어린이집,국공립,정상,08730,서울특별시 관악구 관악로 304 현대아파트 118-101,02-6275-7942,--,4,61,0,5,7,20,17,37.492965481558784,126.9602711026842,미운영,http://iseoul.seoul.go.kr/homepage/main.do?stCode=11620000536,2017-03-01,,,
서울특별시,관악구,구립현대가정어린이집,국공립,정상,08730,서울특별시 관악구 관악로 304 현대아파트 118-102,02-6275-3003,02-6275-3003,4,56,0,5,10,20,20,37.492937383428675,126.96044497647557,미운영,http://iseoul.seoul.go.kr/homepage/main.do?stCode=11620000537,2017-03-01,,,
서울특별시,관악구,구립토마토어린이집,국공립,정상,08797,서울특별시 관악구 남부순환로248길 78 아이펠리스 101호,02-886-2696,02-885-2696,4,63,1,4,9,20,18,37.4728016083,126.9661396749,미운영,http://iseoul.seoul.go.kr/homepage/main.do?stCode=11620000538,2017-03-01,,,
서울특별시,관악구,구립아기구름어린이집,국공립,정상,08742,서울특별시 관악구 남부순환로237길 22 1층 (행운동),02-872-2627,02-6677-2627,4,63,1,8,6,20,9,37.4793701176,126.9607913045,미운영,,2017-03-01,,,
서울특별시,관악구,구립보물단지어린이집,국공립,폐지,08791,서울특별시 관악구 남부순환로230길 94 푸르빌3차아파트 101호,02-888-3677,--,3,99,1,6,0,20,0,37.4760485062,126.9544032553,미운영,,2017-03-01,,,2022-04-30
서울특별시,관악구,구립다온어린이집,국공립,폐지,08780,서울특별시 관악구 남부순환로198길 10 효림다온아파트 101호,02-886-0225,--,3,56,1,4,0,19,0,37.4840772016,126.9364254683,미운영,http://iseoul.seoul.go.kr/homepage/main.do?stCode=11620000541,2017-03-01,,,2023-04-30
서울특별시,관악구,구립소하어린이집,국공립,정상,08705,서울특별시 관악구 관천로15길 116 ,02-854-4786,--,4,56,1,6,8,15,14,37.4858413648,126.9161847565,미운영,다음카페 구립소하어린이집,2017-03-01,,,
서울특별시,관악구,구립꿀송이어린이집,국공립,정상,08725,서울특별시 관악구 성현로 80 관악드림타운아파트 106-104,02-874-2425,02-874-2426,3,57,1,5,10,20,20,37.4898477985,126.9529837015,미운영,http://iseoul.seoul.go.kr/images/portal/contents/btn_home.gif,2017-03-01,,,
서울특별시,관악구,구립조은어린이집,국공립,정상,08734,서울특별시 관악구 관악로30길 27 관악푸르지오아파트 1단지 관리동(122동 123동 사이),02-875-9199,02-875-9198,3,80,0,8,11,29,27,37.48658967172006,126.96010911531094,미운영,,2017-11-01,,,
서울특별시,관악구,구립장군봉어린이집,국공립,정상,08783,서울특별시 관악구 장군봉길 100 ,02-875-0960,02-871-0960,6,614,1,17,20,91,70,37.4787555564,126.9393061617,미운영,,2017-09-25,,,
서울특별시,관악구,구립강감찬어린이집,국공립,정상,08790,서울특별시 관악구 관악로8길 45 ,02-873-6677,--,7,239,2,16,9,63,21,37.4756127973,126.9553983852,미운영,,2017-09-25,,,
서울특별시,관악구,서봄어린이집,협동,폐지,08783,서울특별시 관악구 신림로44나길 18 1층,02-882-3351,02-882-3352,3,43,0,0,0,16,0,37.4781408974,126.9355803115,미운영,,2018-03-01,,,2022-03-01
서울특별시,관악구,구립조앤아이어린이집,국공립,정상,08735,서울특별시 관악구 관악로30길 12 봉천우성아파트 103-101,02-883-0312,--,4,72,0,7,12,20,20,37.485729043904435,126.95962338008707,미운영,,2018-02-23,,,
서울특별시,관악구,구립찬솔어린이집,국공립,정상,08853,서울특별시 관악구 법원단지12길 24 ,02-853-0330,--,4,83,0,8,12,19,19,37.4728196514,126.9209337758,미운영,https://blog.naver.com/chansolchildren,2018-02-23,,,
서울특별시,관악구,구립즐거운어린이집,국공립,정상,08751,서울특별시 관악구 양녕로 31 두산아파트 3단지 관리동,02-3285-1998,--,4,90,0,6,7,31,18,37.4851522616,126.9457774779,미운영,,2018-02-23,,,
서울특별시,관악구,구립난곡어린이집,국공립,정상,08858,서울특별시 관악구 난곡로31길 14 ,02-838-3766,02-838-3765,4,130,0,16,11,49,40,37.47129650988322,126.91896272159776,미운영,,2018-12-04,,,
서울특별시,관악구,구립별이랑어린이집,국공립,정상,08793,서울특별시 관악구 낙성대역길 19 동원낙성대아파트 101-106,02-888-2829,0504-052-8736,3,68,0,5,5,20,6,37.476336877025425,126.96219758452501,미운영,,2019-03-01,,,
서울특별시,관악구,구립아이봄어린이집,국공립,정상,08751,서울특별시 관악구 은천로 86 두산아파트 208-101,02-883-2081,--,4,65,0,6,9,20,20,37.48660631178124,126.94539312166282,미운영,,2019-03-01,,,
서울특별시,관악구,구립꼬꼬마어린이집,국공립,정상,08847,서울특별시 관악구 호암로 399 삼성산주공아파트 306-101,02-6335-2677,02-6335-2677,3,128,0,4,8,20,20,37.46290449709944,126.92727693068157,미운영,,2019-03-01,,,
서울특별시,관악구,구립희아어린이집,국공립,정상,08734,서울특별시 관악구 관악로30길 27 관악푸르지오아파트 122-101,02-886-0801,02-886-0801,3,127,0,4,9,20,20,37.486292325718445,126.96006969928243,미운영,,2019-03-01,,,
서울특별시,관악구,구립햇님몬테소리어린이집,국공립,정상,08734,서울특별시 관악구 관악로30길 27 관악푸르지오아파트 120-103,02-883-9277,02-883-9277,3,84,0,4,9,20,20,37.48654872347646,126.95893321600682,미운영,,2019-03-01,,,
서울특별시,관악구,구립건강한어린이집,국공립,정상,08726,서울특별시 관악구 관악로 285 성현동아아파트 107-103,02-6080-8058,050-4473-1879,3,63,0,5,10,20,20,37.48966437593508,126.95395625310532,미운영,,2019-03-01,,,
서울특별시,관악구,구립드림타운어린이집,국공립,정상,08862,서울특별시 관악구 난곡로 55 관악산휴먼시아아파트 224-103,02-838-7974,--,5,114,0,5,9,20,19,37.458422013451894,126.92036684764333,미운영,,2019-03-01,,,
서울특별시,관악구,구립신사어린이집,국공립,정상,08703,서울특별시 관악구 관천로21길 16 ,02-857-7490,--,4,124,0,10,10,46,35,37.48779998876579,126.92117805374444,미운영,,2019-07-02,,,
서울특별시,관악구,구립e편한1단지어린이집,국공립,정상,08830,서울특별시 관악구 청룡10길 45 서울대입구e편한세상1단지 105동 앞,02-883-8083,--,4,179,0,8,14,60,40,37.478478043322,126.94291743202088,미운영,,2019-07-02,,,
서울특별시,관악구,구립e편한2단지어린이집,국공립,정상,08830,서울특별시 관악구 청룡16길 43 서울대입구e편한세상2단지 206동 앞,02-883-0903,02-883-0904,5,162,1,12,14,59,43,37.4763695670297,126.94268162236952,미운영,,2019-07-03,,,
서울특별시,관악구,구립인헌어린이집,국공립,정상,08798,서울특별시 관악구 낙성대역14길 6 ,02-889-8586,02-889-8587,4,162,1,20,16,59,30,37.47389803946412,126.9642761116863,미운영,https://iseoul.seoul.go.kr/homepage/main.do?stCode=11620000562,2020-03-30,,,
서울특별시,관악구,구립키즈맘어린이집,국공립,정상,08719,서울특별시 관악구 봉천로23나길 35 101호,02-874-0761,02-872-0761,3,94,0,6,9,22,18,37.48705735540585,126.93739873779566,미운영,,2020-07-27,,,
서울특별시,관악구,카페24직장어린이집,직장,정상,08708,서울특별시 관악구 보라매로3길 23 2층(카페24직장어린이집),02-6279-2411,02-6279-2410,3,143,0,20,11,30,19,37.49110726306653,126.92553931933058,미운영,,2020-08-25,,,
서울특별시,관악구,구립햇님데이케어어린이집,국공립,정상,08725,"서울특별시 관악구 성현로 80 110동 104호(봉천동, 관악드림타운)",02-886-6985,--,4,83,0,5,10,20,15,37.48892019949905,126.95183659288435,미운영,,2022-03-01,,,
서울특별시,관악구,구립뉴포레어린이집,국공립,정상,08700,서울특별시 관악구 조원로 25 1층 상가동,02-6389-3700,02-6389-3701,6,663,1,16,17,88,57,37.483652098931984,126.90455055846746,미운영,,2022-09-01,,,
서울특별시,관악구,구립아리솔어린이집,국공립,폐지,08865,서울특별시 관악구 미성7길 20 구립아리솔어린이집,02-852-7766,--,8,215,1,12,0,64,0,37.47421256778393,126.91440362909998,미운영,,2023-03-01,,,2023-08-31
서울특별시,관악구,구립다솜어린이집,국공립,정상,08816,"서울특별시 관악구 신림로3길 40 2층(신림동, 건영아파트 관리동)",02-885-1941,02-888-1941,4,107,1,7,14,39,38,37.466719848175906,126.94289246143617,미운영,,2024-03-01,,,
서울특별시,관악구,구립센트씨엘어린이집,국공립,정상,08724,서울특별시 관악구 구암5길 28 ,010-9110-4018,--,4,128,1,0,0,45,0,37.566470,126.977963,,,2025-01-01,,,