시도,시군구,어린이집명,어린이집유형구분,운영현황,우편번호,주소,어린이집전화번호,어린이집팩스번호,보육실수,보육실면적,놀이터수,CCTV설치수,보육교직원수,정원수,현원수,위도,경도,통학차량운영여부,홈페이지주소,인가일자,휴지시작일자,휴지종료일자,폐지일자
서울특별시,영등포구,여의도순복음어린이집,직장,정상,07239,서울특별시 영등포구 국회대로76길 25 (여의도동),02-785-3927,02-785-3927,12,495,2,57,27,187,79,37.5306848,126.9232031,미운영,child.fgtv.org,2006-01-19,,,
서울특별시,영등포구,아르미어린이집,민간,폐지,07214,서울특별시 영등포구 당산로 214 삼성래미안4차아파트 419동 1층 (당산동5가),02-2068-5515,02-2068-5515,4,93,2,4,0,28,0,37.53189411,126.903146,미운영,armikid@hanmail.net,2004-02-18,,,2018-02-28
서울특별시,영등포구,튼튼어린이집,민간,폐지,07420,서울특별시 영등포구 디지털로37길 5 (대림동),02-833-5789,02-833-5782,5,223,0,8,0,49,0,37.48912755,126.8987273,미운영,,2004-06-16,,,2024-02-29
서울특별시,영등포구,새상아어린이집,민간,폐지,07436,서울특별시 영등포구 신길로8길 11 ,02-836-0881,02-836-0883,7,253,1,11,0,85,0,37.495788,126.9096985,운영,http://cafe.daum.net/saesanga,2000-02-01,,,2023-03-20
서울특별시,영등포구,석화어린이집,가정,정상,07269,"서울특별시 영등포구 선유서로 115 101동 106호(양평동3가, 삼천리아파트)",02-2677-9533,--,3,47,0,4,6,18,17,37.52591824,126.8857036,미운영,,2004-12-28,,,
서울특별시,영등포구,밝음이어린이집,가정,폐지,07355,서울특별시 영등포구 여의대방로51길 13 (신길동),02-843-0155,02-843-0155,2,45,1,3,0,17,0,37.51068996,126.9228197,미운영,,2003-11-20,,,2017-08-31
서울특별시,영등포구,파랑어린이집,가정,폐지,07365,"서울특별시 영등포구 도신로29길 28 103동 104호(영등포동, 영등포푸르지오1단지아파트)",02-849-7893,02-849-7893,3,54,0,5,0,19,0,37.51181664,126.9036672,미운영,,1997-10-08,,,2022-02-28
서울특별시,영등포구,새록어린이집,민간,폐지,150822,서울 영등포구 대림1동 965-1 ,02-845-1162,--,0,0,0,0,0,32,0,,,,,2001-12-24,,,2007-09-28
서울특별시,영등포구,재롱둥이아가어린이집,가정,폐지,07378,서울특별시 영등포구 도신로4길 29 (대림동),02-836-1255,02-836-1255,4,64,0,4,0,20,0,37.50099727,126.896636,미운영,,2002-09-09,,,2020-03-31
서울특별시,영등포구,푸르지오어린이집,민간,폐지,07226,서울특별시 영등포구 영중로 154 푸르지오아파트 내푸르지오어린이집 (영등포동8가),02-2677-3927,02-2677-3927,5,113,0,7,0,39,0,37.53007564,126.9063326,미운영,,1998-02-10,,,2018-02-28
서울특별시,영등포구,선화어린이집,민간,폐지,07351,서울특별시 영등포구 도신로64가길 15 (신길동),02-835-1523,--,5,125,0,7,0,35,0,37.5110878,126.9195191,미운영,,2004-10-02,,,2020-03-16
서울특별시,영등포구,양평2동어린이집,국공립,정상,07206,서울특별시 영등포구 선유로53길 20-7 (양평동4가),02-2634-7383,02-2634-7364,4,217,1,7,12,64,54,37.53809531,126.8964064,미운영,,1982-03-01,,,
서울특별시,영등포구,영삼어린이집,국공립,정상,07251,서울특별시 영등포구 영등포로35길 13 (영등포동6가),02-2634-7859,02-2631-3834,4,197,1,8,13,45,34,37.52132627,126.9041616,미운영,http://03song.ukid.kr,1988-03-02,,,
서울특별시,영등포구,구민회관어린이집,국공립,정상,07258,서울특별시 영등포구 국회대로 596 ,02-2678-5685,0502-289-5685,4,122,0,12,12,47,29,37.52606609,126.9008069,미운영,http://cafe.naver.com/guminchild,1993-02-19,,,
서울특별시,영등포구,어깨동무어린이집,국공립,정상,07366,서울특별시 영등포구 영신로13길 8 (영등포동),02-833-7326,02-834-7327,5,263,1,12,14,79,41,37.51360246,126.9074553,미운영,,1994-07-08,,,
서울특별시,영등포구,꿈나무어린이집,국공립,정상,07431,서울특별시 영등포구 대방천로 199 (신길동),02-848-1001,02-831-5813,8,428,3,15,27,160,96,37.49900757,126.9130388,미운영,https://iseoul.seoul.go.kr/portal/,1990-06-20,,,
서울특별시,영등포구,대림1동어린이집,국공립,정상,07428,서울특별시 영등포구 디지털로 441 (대림동),02-845-0589,02-833-5901,4,120,1,14,12,59,56,37.4954839,126.9059462,미운영,,1984-04-06,,,
서울특별시,영등포구,신일어린이집,국공립,정상,07356,서울특별시 영등포구 영등포로84길 24-5 (신길동),02-846-8674,02-846-8675,5,268,2,16,24,94,68,37.51114042,126.921431,미운영,,2003-10-08,,,
서울특별시,영등포구,하정하나어린이집,국공립,정상,07360,서울특별시 영등포구 여의대방로43길 1 (신길동),02-841-5959,02-842-5297,7,308,1,45,18,87,71,37.506002822,126.9222378807,미운영,,1988-09-01,,,
서울특별시,영등포구,신길종합사회복지관방과후교실,사회복지법인,폐지,07356,서울특별시 영등포구 영등포로84길 24-5 신길종합사회복지관햇살가득방과후교실 (신길동),02-831-2755,02-831-2756,1,195,0,0,0,20,0,37.51098556,126.9214445,미운영,http://www.singil.org/,2004-03-01,,,2012-09-30
서울특별시,영등포구,영등포성결교회방과후교실,법인·단체등,폐지,07228,서울특별시 영등포구 영중로33길 9 (영등포동8가),02-2633-1552,02-2633-1552,2,251,1,0,0,39,0,37.52608417,126.9044009,운영,http://cafe.naver.com/ysafterschool,1998-06-29,,,2012-08-31
서울특별시,영등포구,명신어린이집,국공립,정상,07384,서울특별시 영등포구 신길로41라길 13-9 명신어린이집,02-831-5329,02-848-2798,5,214,1,7,6,59,14,37.5076327075,126.9083699948,미운영,,1990-06-02,,,
서울특별시,영등포구,신길5동어린이집,국공립,정상,07424,서울특별시 영등포구 신길로13길 20 (신길동),02-842-7398,02-842-7397,7,531,2,16,18,97,73,37.49758565,126.9060998,미운영,,1990-05-30,,,
서울특별시,영등포구,대림3동어린이집,국공립,폐지,07415,서울특별시 영등포구 도림로31길 14-1 ,02-844-0050,02-848-1059,4,293,1,7,0,64,0,37.4936606,126.8955328,미운영,,1989-06-02,,,2018-02-28
서울특별시,영등포구,미루나무어린이집,국공립,폐지,07368,서울특별시 영등포구 도신로29가길 12 (도림동),02-849-9570,02-849-1337,4,174,1,5,0,49,0,37.50936991,126.9064414,미운영,dolim-1@hanmail.net,1993-05-27,,,2024-02-29
서울특별시,영등포구,늘푸른 어린이집,민간,폐지,150853,서울 영등포구 신길1동 459-5 ,000--2298,02-846-2267,0,0,0,0,0,39,0,,,,nilpurun.co.kr,1988-11-07,,,2008-09-08
서울특별시,영등포구,아이동산어린이집,법인·단체등,폐지,07218,서울특별시 영등포구 선유동2로 17 (양평동3가),02-6959-4174,02-6959-4175,4,79,0,11,0,26,0,37.5307765,126.8950887,미운영,,1996-09-10,,,2023-03-02
서울특별시,영등포구,양평1동 어린이집,국공립,정상,07272,서울특별시 영등포구 양평동1가 선유서로24길 21 양평1동어린이집,02-2677-7781,02-2632-8500,4,232,1,5,12,59,50,37.5236245376,126.8883815756,미운영,,1985-08-01,,,
서울특별시,영등포구,영신방과후교실,사회복지법인,폐지,150044,서울 영등포구 당산동4가 영신교회 방과후 교실 ,02-2069-2279,02-2635-4697,3,171,0,0,0,40,0,,,,,2006-04-14,,,2010-06-30
서울특별시,영등포구,영길교회방과후교실어린이집,법인·단체등,폐지,150857,서울특별시 영등포구 신풍로11다길 18 (신길동),02-848-3462,02-832-3462,2,153,0,0,0,40,0,37.50150028,126.9151436,운영,,2005-07-11,,,2012-12-27
서울특별시,영등포구,영등포교회어린이집,사회복지법인,폐지,150037,서울특별시 영등포구 양산로41길 3 (영등포동7가),02-2632-1931,02-2632-1946,5,93,1,0,0,46,0,37.52286257,126.9071789,미운영,,1991-10-25,,,2014-02-28
서울특별시,영등포구,영등포종합사회복지관방과후어린이집,사회복지법인,폐지,07424,서울특별시 영등포구 신길로13길 4 영등포종합사회복지관 (신길동) 어린이집,02-849-1454,02-845-8052,1,71,1,0,0,20,0,37.49727272,126.9071414,운영,www.childfund-ydp.or.kr,1998-05-27,,,2013-03-04
서울특별시,영등포구,양평3가어린이집,국공립,정상,07270,서울특별시 영등포구 선유서로34길 10 (양평동3가),02-2678-8336,02-2677-6797,9,264,3,16,19,99,77,37.52685109,126.8873573,미운영,khky3@naver.com,1989-06-20,,,
서울특별시,영등포구,양평동교회어린이집,사회복지법인,폐지,07206,서울특별시 영등포구 양평로20길 11 (양평동4가),02-2631-9610,02-2632-1931,4,125,2,5,0,44,0,37.53809703,126.8958191,미운영,moying203@hanmail.net,1987-03-03,,,2022-02-28
서울특별시,영등포구,대방초등학교방과후교실,법인·단체등,폐지,150856,서울 영등포구 신길7동 1444번지 대방초등학교 방과후교실 ,02-833-3451,02-833-3453,0,0,0,0,1,20,8,,,,,1998-06-01,,,
서울특별시,영등포구,영등포구청직장어린이집,직장,정상,07256,서울특별시 영등포구 당산동3가 선유동1로 80 영등포구청직장어린이집,02-2678-1221,02-2677-3527,4,114,0,16,8,32,18,37.528621700164635,126.89448782449928,미운영,,1997-04-01,,,
서울특별시,영등포구,양평동교회방과후어린이집,법인·단체등,폐지,07206,서울특별시 영등포구 양평로20길 5 양평동교회교육관2층 양평동교회방과후교실 (양평동4가),02-2069-2236,02-2069-2236,2,168,0,1,0,39,0,37.53776608,126.8955015,미운영,,2004-04-14,,,2016-05-31
서울특별시,영등포구,킨더벨트어린이집,가정,정상,07360,"서울특별시 영등포구 여의대방로43나길 25 107동 101호(신길동, 삼환아파트)",02-6746-7893,02-6746-7893,3,53,2,4,7,20,19,37.50694911894846,126.91858489768175,미운영,,2006-05-02,,,
서울특별시,영등포구,대동초방과후교실,법인·단체등,폐지,150072,서울 영등포구 대림2동 702번지 ,02-843-7708,02-843-7708,0,0,0,0,0,20,17,,,,,2003-06-30,,,
서울특별시,영등포구,베어스어린이집,가정,정상,07282,"서울특별시 영등포구 선유서로 40 101동 106호(문래동6가, 베어스타운아파트)",02-6264-0521,--,3,50,0,4,5,20,18,37.51913822,126.8850646,미운영,,2002-01-21,,,
서울특별시,영등포구,아이꿈나무어린이집,가정,정상,07283,"서울특별시 영등포구 문래로4길 6 201동 106호(문래동6가, 현대아파트)",070-8286-9448,070-8286-9448,3,67,0,4,8,20,19,37.52039597,126.8830515,미운영,,2003-03-20,,,
서울특별시,영등포구,신동화어린이집,가정,폐지,07376,"서울특별시 영등포구 도신로 31 302동 105호(대림동, 현대3차아파트)",02-843-9774,02-843-9774,2,45,1,4,0,17,0,37.50558653,126.8956037,미운영,,1999-11-02,,,2020-03-26
서울특별시,영등포구,꿈나라어린이집,가정,정상,07392,서울특별시 영등포구 신풍로19가길 12-1 원형스위트빌 101호 (신길동),02-848-4810,--,3,58,0,4,8,20,20,37.50123807,126.9177961,미운영,,1999-12-09,,,
서울특별시,영등포구,동아어린이집,가정,폐지,07374,"서울특별시 영등포구 도림로 365 101동 101호(도림동, 동아아파트)",02-6203-2335,02-6203-2335,3,58,0,4,0,20,0,37.50920049,126.8986813,미운영,donga1004.cyworld.com,2004-05-03,,,2017-02-28
서울특별시,영등포구,당산1동어린이집,국공립,정상,07265,서울특별시 영등포구 영등포로25길 24 (당산동1가),02-2675-4295,02-2671-1911,5,141,1,15,12,59,45,37.52306349,126.8984492,미운영,,1985-12-13,,,
서울특별시,영등포구,에덴어린이집,가정,정상,07336,"서울특별시 영등포구 여의대로6길 17 C동 106호(여의도동, 공작아파트)",02-769-1339,02-769-1339,3,86,0,4,6,20,20,37.5270512811,126.9296102411,미운영,,1992-10-02,,,
서울특별시,영등포구,한울어린이집,가정,폐지,150815,서울 영등포구 대림3동 742-7 ,02-844-5023,--,0,0,0,0,0,20,0,,,,,2005-01-29,,,2009-03-11
서울특별시,영등포구,예꼬어린이집,가정,정상,07365,"서울특별시 영등포구 도신로29길 28 202동 101호(영등포동, 영등포푸르지오2단지아파트)",02-844-5994,02-844-5994,3,64,0,4,7,20,16,37.51181664,126.9036672,미운영,,2002-07-02,,,
서울특별시,영등포구,아이세상어린이집,가정,정상,07365,"서울특별시 영등포구 도신로29길 28 215동 104호(영등포동, 영등포푸르지오2단지아파트)",02-833-2285,02-833-2285,4,56,0,4,7,20,17,37.51181664,126.9036672,미운영,kidsworld.mypepe.com,2002-06-10,,,
서울특별시,영등포구,새숲어린이집,가정,폐지,07319,서울특별시 영등포구 여의대방로61길 25 새숲어린이집 1층,02-833-7341,02-833-7341,2,27,1,3,0,10,0,37.5149067,126.9235973,미운영,hyun00724@hananet.net,2001-11-14,,,2017-03-14
서울특별시,영등포구,헵시바어린이집,가정,폐지,150053,서울 영등포구 신길3동 330-1 ,02-846-9347,--,3,55,0,0,0,20,0,,,,,2004-12-15,,,2010-12-01
서울특별시,영등포구,반석어린이집,가정,폐지,07389,서울특별시 영등포구 신길로28다길 5 (신길동),070-7557-2917,02-2636-2718,2,41,0,0,0,15,0,37.50282509,126.9124304,미운영,cafe.daum.net/bansuk1955,1996-07-05,,,2018-10-23
서울특별시,영등포구,아이존어린이집,가정,폐지,07411,"서울특별시 영등포구 당산동2가 당산로 95 105동 103호(당산동2가,현대아파트)",02-833-1446,02-833-1446,3,58,0,4,0,20,0,37.49639004,126.8959382,미운영,,1999-07-08,,,2019-03-01
서울특별시,영등포구,상아 어린이집,가정,폐지,150754,서울 영등포구 당산동4가 현대5차아파트 505동 103호 ,02-2675-9987,02-2675-9987,0,0,0,0,0,17,0,,,,http;//yeongdeungpo.cykids.net/~sanga69,1995-07-19,,,2007-10-01
서울특별시,영등포구,아가방어린이집,가정,폐지,07431,서울특별시 영등포구 여의대방로 25 보라매경남아너스빌 108-103,02-833-3465,02-833-3465,3,51,0,6,0,19,0,37.49874138,126.9152513,미운영,,1991-07-16,,,2020-07-01
서울특별시,영등포구,예쁜아이어린이집,국공립,정상,07432,서울특별시 영등포구 대방천로 245-19 ,02-843-9898,02-847-9989,4,117,0,8,10,27,23,37.49939195,126.9181032,미운영,ye843@hanmail.net,2015-03-01,,,
서울특별시,영등포구,초록세상어린이집,민간,폐지,150989,서울 영등포구 영등포동8가 삼환아파트 관리사무소 2층  8가 76-1 ,02-2675-0057,02-2675-0057,0,0,0,0,0,24,0,,,,,1999-12-30,,,2008-01-11
서울특별시,영등포구,여의도아이사랑어린이집,가정,정상,07340,"서울특별시 영등포구 국제금융로 79 C동 102호(여의도동, 한양아파트)",02-786-7642,02-786-7642,4,52,2,4,6,19,18,37.52131007,126.9324966,미운영,,2001-12-14,,,
서울특별시,영등포구,꿈동산어린이집,가정,폐지,150053,서울 영등포구 신길3동 396번지 ,016-9313-0400,--,0,0,0,0,0,18,0,,,,,1997-02-10,,,2009-02-11
서울특별시,영등포구,하늘삐아제어린이집,가정,폐지,150907,서울 영등포구 대림2동 701번지 ,02-843-8419,02-843-8419,0,0,0,0,0,20,0,,,,,1994-12-10,,,2008-04-01
서울특별시,영등포구,피터팬어린이집,가정,정상,07264,"서울특별시 영등포구 당산로 95 102동 101호(당산동2가, 한전현대아파트)",02-2633-8078,02-2633-8078,3,53,0,4,9,19,19,37.524008843657974,126.89479297332491,미운영,peterpan.wownara.com.,1998-12-12,,,
서울특별시,영등포구,한신또래어린이집,가정,정상,07204,"서울특별시 영등포구 양평로24길 9 105동 101호(양평동5가, 한신아파트)",02-2634-0993,--,3,54,2,4,6,20,19,37.54013232,126.8921478,미운영,,1998-04-03,,,
서울특별시,영등포구,온머리어린이집,가정,정상,07318,"서울특별시 영등포구 영등포로 351 102동 101호(신길동, 신길동경남아파트)",02-842-1171,02-6954-1172,3,57,0,4,5,19,13,37.51567069,126.9183591,미운영,,2006-02-02,,,
서울특별시,영등포구,하늘빛가정어린이집,가정,폐지,150805,서울 영등포구 당산동4가 29번지 한강@ 101동101호 ,02-2677-4207,--,0,0,0,0,0,17,0,,,,,2003-07-29,,,2007-02-28
서울특별시,영등포구,여의도어린이집,가정,폐지,07341,"서울특별시 영등포구 국제금융로7길 32 B동 108호(여의도동, 장미아파트)",02-786-1059,02-786-1059,3,65,1,4,0,20,0,37.52353541,126.9340679,미운영,,1997-03-19,,,2019-04-11
서울특별시,영등포구,우리아이어린이집,가정,폐지,07392,서울특별시 영등포구 신풍로23길 11-1 ,02-841-7249,02-842-1537,3,52,1,3,0,15,0,37.50119299,126.9184809,미운영,,2003-12-30,,,2018-02-28
서울특별시,영등포구,작은꼬마어린이집,가정,폐지,07435,"서울특별시 영등포구 여의대방로5길 6 1동 108호(신길동, 우창아파트)",02-833-3044,02-833-3044,3,42,0,5,0,15,0,37.4972044,126.912236,미운영,,2005-12-07,,,2017-02-28
서울특별시,영등포구,동화나라어린이집,가정,정상,07365,"서울특별시 영등포구 도신로29길 28 205동 104호(영등포동, 영등포푸르지오2단지아파트)",02-6677-6363,02-6677-6363,3,87,6,5,6,20,13,37.51181664,126.9036672,미운영,키즈노트,2002-08-19,,,
서울특별시,영등포구,선태또래놀이방,가정,폐지,150764,서울 영등포구 대림3동 신동아아파트 2동115호 ,02-6274-7288,02-6274-7288,0,0,0,0,0,10,0,,,,sun3332.0363.net,2004-12-30,,,2008-06-09
서울특별시,영등포구,꿈땅어린이집,가정,폐지,07217,"서울특별시 영등포구 당산로41길 17 106동 105호(당산동4가, 현대)",02-2633-3998,02-2633-3998,3,94,1,4,0,20,0,37.53146213,126.8967214,미운영,,2004-10-28,,,2017-04-30
서울특별시,영등포구,멘토어린이집,가정,폐지,07216,"서울특별시 영등포구 당산로42길 16 510동 104호(당산동4가, 현대5차아파트)",02-2636-1650,02-2694-1235,4,70,3,4,0,20,0,37.52963147,126.9008055,미운영,,2006-06-09,,,2023-03-31
서울특별시,영등포구,유선생창의어린이집,가정,폐지,150755,서울 영등포구 당산동5가 12 효성아파트 103동 102호 ,070-8276-3494,--,2,36,0,0,0,12,0,37.5307754,126.9017323,,,2004-08-25,,,2013-09-26
서울특별시,영등포구,한사랑 어린이집,가정,정상,07210,"서울특별시 영등포구 선유로43가길 24 107동 102호(양평동3가, 거성파스텔아파트)",02-6264-3446,--,3,62,0,4,5,20,14,37.53148116,126.8919205,미운영,,2005-01-27,,,
서울특별시,영등포구,청담몬테소리어린이집,가정,정상,07216,"서울특별시 영등포구 당산동4가 당산로42길 16 504동 103호(당산동4가, 현대5차아파트)",02-2632-8100,02-2632-8100,4,69,0,6,9,20,20,37.5286113,126.9029158,미운영,pms6026.0363.net,2004-10-19,,,
서울특별시,영등포구,거성어린이집,가정,폐지,07210,서울특별시 영등포구 양평동3가 선유로43가길 24 거성파스텔아파트 관리동1층 어린이집 (양평동3가),02-2672-9681,02-6672-2465,2,49,0,3,0,18,0,37.53148116,126.8919205,미운영,,2005-01-27,,,2018-07-01
서울특별시,영등포구,사랑채움어린이집,가정,정상,07211,"서울특별시 영등포구 선유로 207 601동 102호(양평동3가, 현대6차아파트)",070-8236-5319,02-6747-5319,3,54,0,4,8,19,17,37.53179456,126.8935372,미운영,,2001-04-09,,,
서울특별시,영등포구,큰나무어린이집,가정,폐지,07295,"서울특별시 영등포구 문래로20길 14 2동 103호(문래동3가, 한신아파트)",02-6335-2903,02-6335-2903,3,54,0,4,0,19,0,37.51738098,126.892991,미운영,큰나무어린이집,2005-09-05,,,2019-03-01
서울특별시,영등포구,병아리어린이집,가정,폐지,07285,"서울특별시 영등포구 선유로9길 31 2동 102호(문래동5가, 진주아파트)",070-7729-0579,02-2678-2712,3,52,1,4,0,20,0,37.51714844,126.8848419,미운영,https://cafe.naver.com/bbiyagibaby,2003-02-25,,,2019-05-02
서울특별시,영등포구,웰라이어린이집,가정,정상,07309,"서울특별시 영등포구 영등포로62길 42 101동 104호(영등포동, 순영웰라이빌)",02-842-3412,02-843-3412,3,64,1,4,7,20,15,37.51654357,126.9132313,미운영,dream2131@yahoo.co.kr,2002-09-02,,,
서울특별시,영등포구,오렌지어린이집,가정,정상,07215,"서울특별시 영등포구 당산로42길 7 201동 105호(당산동5가, 효성아파트)",02-6267-1326,--,3,52,1,6,6,19,18,37.5307754,126.9017323,미운영,,2003-11-28,,,
서울특별시,영등포구,해태어린이집,국공립,정상,07411,서울특별시 영등포구 가마산로 316 (대림동),02-832-4071,02-832-4047,7,545,2,20,30,165,111,37.49802059,126.8948432,미운영,,1991-03-27,,,
서울특별시,영등포구,다빈어린이집,가정,폐지,07423,서울특별시 영등포구 도림로 204-4 ,02-842-6788,02-6080-6788,3,34,1,0,0,12,0,37.49675343,126.9035132,미운영,,1998-04-27,,,2019-07-01
서울특별시,영등포구,리틀다빈어린이집,가정,폐지,07423,서울특별시 영등포구 대림로22다길 7-2 ,02-843-6788,02-6070-6788,3,34,0,0,0,13,0,37.49630643,126.9042808,미운영,,2006-02-01,,,2014-03-10
서울특별시,영등포구,콩아이어린이집,가정,폐지,07377,"서울특별시 영등포구 도신로4길 10 101동 101호(대림동, 현대1차아파트)",02-843-1212,--,3,57,2,0,0,19,0,37.50295564,126.8948485,미운영,,2005-06-23,,,2015-03-09
서울특별시,영등포구,별이달이어린이집,가정,폐지,07423,"서울특별시 영등포구 대림로22길 29 102동 103호(대림동, 갑을명가아파트)",02-846-6549,02-846-6549,3,53,0,5,0,19,0,37.49565679,126.9036988,미운영,,2004-08-02,,,2019-03-01
서울특별시,영등포구,성민영재어린이집,민간,폐지,07361,서울특별시 영등포구 도신로56길 41-4 ,02-836-6634,02-836-6634,3,110,0,6,0,43,0,37.50776937,126.9156953,운영,,2005-01-28,,,2018-02-21
서울특별시,영등포구,햇님어린이집,국공립,정상,07283,"서울특별시 영등포구 선유서로 43 1동 105호(문래동6가, 한신아파트)",02-2068-5664,02-2068-5664,4,94,0,5,8,20,19,37.51925951644784,126.88405337225043,미운영,,2015-12-29,,,
서울특별시,영등포구,은지어린이집,가정,정상,07392,서울특별시 영등포구 신풍로19가길 12-1 102호(신길동),02-848-4833,02-847-4844,3,59,0,3,8,18,18,37.49991486372461,126.91586142511659,미운영,,1997-04-08,,,
서울특별시,영등포구,고운색동어린이집,민간,폐지,150900,서울특별시 영등포구 영등포동7가 영중로27길 8 (영등포동),02-2634-8760,02-2676-5158,7,210,1,7,0,49,0,37.52488463,126.9063179,미운영,http://gusd.0363.net,1996-04-02,,,2023-04-27
서울특별시,영등포구,윤지어린이집,민간,폐지,07446,서울특별시 영등포구 도림천로21길 33 ,02-844-4050,02-844-4050,3,86,0,8,0,32,0,37.48835064,126.9029655,미운영,,1998-12-31,,,2023-12-31
서울특별시,영등포구,튼튼아이어린이집,민간,폐지,07347,서울특별시 영등포구 신길로42가길 3 (신길동),02-846-0045,02-846-0133,4,65,1,0,0,23,0,37.5085586,126.9115713,운영,,1997-08-21,,,2014-09-30
서울특별시,영등포구,해와달어린이집,민간,폐지,07391,서울특별시 영등포구 여의대방로39가길 5 (신길동),02-832-3231,--,6,187,3,0,0,75,0,37.50307901,126.9181031,미운영,,2004-12-17,,,2019-05-13
서울특별시,영등포구,파랑새어린이집,민간,폐지,07428,서울특별시 영등포구 디지털로71길 4-10 ,02-842-9444,02-842-9445,4,68,1,4,0,25,0,37.49578018,126.9045678,미운영,,1996-02-27,,,2015-09-30
서울특별시,영등포구,하나유아스쿨어린이집,민간,폐지,07245,서울특별시 영등포구 영중로29길 8 (영등포동7가),02-2631-5662,02-2631-5663,4,118,1,8,0,49,0,37.52522304,126.9044293,운영,,1997-05-02,,,2019-05-21
서울특별시,영등포구,해나라어린이집,민간,폐지,07443,서울특별시 영등포구 대림로7나길 1 서울시 영등포구 대림로 7나길 1,02-846-0730,02-846-0701,3,72,0,4,0,27,0,37.48924133,126.9036942,미운영,http://haenarakid.dum,2001-01-04,,,2018-09-04
서울특별시,영등포구,예나어린이집,민간,폐지,150818,서울 영등포구 대림1동 876-20 ,02-848-0171,--,0,0,0,0,0,32,0,,,,hbys.dreamwiz.com,1997-02-28,,,2007-03-08
서울특별시,영등포구,새길어린이집,민간,폐지,07426,서울특별시 영등포구 대방천로 149 (신길동),02-718-4748,02-718-4748,8,258,1,16,0,99,0,37.49963299,126.9074825,운영,,1996-10-04,,,2018-03-01
서울특별시,영등포구,신무지개어린이집,민간,폐지,07220,서울특별시 영등포구 당산로36길 11 (당산동4가),02-2671-7105,02-2671-7105,2,55,1,0,0,25,0,37.52803007,126.8990358,미운영,,1999-12-15,,,2015-06-12
서울특별시,영등포구,나라어린이집,민간,폐지,07391,서울특별시 영등포구 가마산로90길 18 ,02-845-0162,02-6082-9161,2,64,0,0,0,25,0,37.50261031782856,126.9205540437632,운영,http://cafe.daum.net/narakids,1996-07-15,,,2016-04-30
서울특별시,영등포구,참사랑어린이집,민간,폐지,07438,서울특별시 영등포구 디지털로 400 유성빌딩2층 참사랑어린이집,02-841-5695,02-841-5695,4,119,2,6,0,39,0,37.49224377,126.9033247,미운영,,1995-04-13,,,2020-12-01
서울특별시,영등포구,신기루 어린이집,민간,폐지,07319,서울특별시 영등포구 여의대방로61길 14-7 경남상가2층,02-842-8242,02-845-0294,2,86,2,0,0,30,0,37.51567069,126.9183591,운영,,2000-03-03,,,2013-04-30
서울특별시,영등포구,푸른어린이집,국공립,정상,07310,서울특별시 영등포구 신길로62나길 3-1 ,02-835-0835,02-835-0836,4,101,1,15,13,30,23,37.51321793,126.9167725,미운영,,1999-01-28,,,
서울특별시,영등포구,예쁜세상어린이집,민간,폐지,07430,서울특별시 영등포구 대방천로 185-1 ,02-844-5244,02-834-9897,3,70,0,0,0,24,0,37.49923035,126.9115948,운영,ye843@hanmail.net,1997-03-18,,,2015-03-27
서울특별시,영등포구,엄마품어린이집,가정,폐지,150057,서울 영등포구 신길7동 2381 ,02-836-3462,02-831-1577,0,0,0,0,0,14,0,,,,town.cyworld.com/mother,2005-12-02,,,2014-01-28
서울특별시,영등포구,샛별어린이집,민간,폐지,150838,서울 영등포구 신길2동 159-50호 ,02-843-5758,02-849-5759,3,100,0,0,0,37,0,,,,,1996-09-09,,,2010-04-27
서울특별시,영등포구,디모데어린이집,민간,폐지,07355,서울특별시 영등포구 영등포로86길 17 (신길동),02-849-0318,02-834-0317,2,108,3,3,0,39,0,37.5113008,126.9231095,운영,,1994-02-01,,,2018-02-28
서울특별시,영등포구,태양어린이집,민간,폐지,07381,서울특별시 영등포구 가마산로45길 13-1 (대림동),02-836-5422,02-836-5422,4,91,0,2,0,34,0,37.50531819,126.9097838,운영,,1997-02-28,,,2016-02-29
서울특별시,영등포구,명문어린이집,민간,폐지,07387,서울특별시 영등포구 가마산로69가길 8 (신길동),02-848-7371,02-848-7371,3,86,0,3,0,25,0,37.50622486,126.9090264,미운영,,1997-05-13,,,2018-09-01
서울특별시,영등포구,리틀팰리스 어린이집,민간,폐지,07413,서울특별시 영등포구 도림로41길 20-1 ,02-849-3026,02-843-5002,13,247,1,13,0,87,0,37.4957428,126.8977401,미운영,,1996-04-29,,,2020-04-24
서울특별시,영등포구,경희어린이집,민간,폐지,150847,서울특별시 영등포구 가마산로65길 15 (신길동),02-848-0853,02-848-0853,3,71,0,0,0,26,0,37.50708005,126.9063097,미운영,,1997-11-17,,,2013-05-30
서울특별시,영등포구,코뿔소어린이집,민간,폐지,07279,서울특별시 영등포구 양평동1가 선유로 85-7 ,02-2675-6686,02-2679-6831,4,183,1,7,0,55,0,37.5216140324,126.8889456567,미운영,,2004-08-02,,,2024-02-29
서울특별시,영등포구,성모어린이집,직장,정상,07345,서울특별시 영등포구 63로 10 ,02-3779-1970,0504-489-6864,3,82,2,8,7,20,10,37.5179933,126.9360868,미운영,https://moamom150.kiznet.co.kr/,1998-04-29,,,
서울특별시,영등포구,모여라어린이집,민간,폐지,07348,서울특별시 영등포구 도신로48길 19 (신길동),02-842-9376,02-842-9376,3,67,0,8,0,22,0,37.50944934558797,126.91343030214867,운영,,2001-09-17,,,2021-03-15
서울특별시,영등포구,푸른나라어린이집,민간,폐지,07219,서울특별시 영등포구 당산동4가 당산로35길 1 당산동 35길 5,02-2633-0066,02-2633-0066,4,134,1,0,0,54,0,37.52872835,126.8971022,,,1997-02-21,,,2013-07-12
서울특별시,영등포구,드림타운어린이집,민간,폐지,07365,서울특별시 영등포구 도신로29길 28 대우아파트 1단지내 (영등포동),02-6746-1004,02-831-1411,3,62,6,4,0,27,0,37.51041002,126.9045305,미운영,,2003-01-20,,,2018-02-28
서울특별시,영등포구,국회제1어린이집,직장,정상,07233,서울특별시 영등포구 의사당대로 1 국회제1어린이집,02-6788-3294,02-6788-3295,9,348,2,23,43,170,104,37.53135257812926,126.91201623739138,미운영,assemblykids.or.kr,1995-01-14,,,
서울특별시,영등포구,룸비니어린이집,국공립,폐지,07390,서울특별시 영등포구 가마산로80가길 5 (신길동),02-834-7260,02-831-7262,4,229,1,7,0,67,0,37.50363923,126.9142485,미운영,,2004-04-28,,,2018-02-05
서울특별시,영등포구,새예닮어린이집,민간,정상,07311,서울특별시 영등포구 신길로60마길 10 (신길동),02-847-3751,--,9,298,1,10,8,99,38,37.51381581,126.9132946,미운영,,2003-11-25,,,
서울특별시,영등포구,은석어린이집,민간,폐지,07433,서울특별시 영등포구 여의대방로23길 11 (신길동),02-841-4242,02-844-5573,6,320,1,15,0,120,0,37.49818719,126.918686,미운영,http://eunsuk.ukid.kr,2006-01-26,,,2023-03-10
서울특별시,영등포구,신길키즈스쿨어린이집,민간,폐지,150051,서울 영등포구 신길1동 449-28호 ,02-836-4546,02-836-4546,0,0,0,0,0,63,0,,,,,2003-12-03,,,2008-02-22
서울특별시,영등포구,금융감독원어린이집,직장,정상,07321,서울특별시 영등포구 여의대로 38 금융감독원어린이집 (여의도동),02-3145-6050,02-3145-6055,8,372,2,32,32,99,80,37.52304731,126.9213942,미운영,http://www.puruni.com/fss,2005-08-08,,,
서울특별시,영등포구,해오름 어린이집,민간,폐지,07392,서울특별시 영등포구 여의대방로31길 10 (신길동),02-846-1323,02-816-7100,5,114,1,8,0,35,0,37.5005846,126.9191502,운영,,2005-09-05,,,2023-10-02
서울특별시,영등포구,나랑어린이집,가정,폐지,07349,서울특별시 영등포구 도신로60길 26 (신길동),02-846-1544,02-846-1544,4,56,0,4,0,20,0,37.50972793,126.9172335,미운영,,2000-06-22,,,2019-05-24
서울특별시,영등포구,한남어린이집,국공립,정상,07251,서울특별시 영등포구 양산로 182 (영등포동6가),02-2679-9516,02-2679-9516,4,111,1,5,13,42,28,37.52283796,126.9032605,미운영,club.cyworld.com/hannamkidslove,1997-03-06,,,
서울특별시,영등포구,예지미예뜰어린이집,민간,폐지,07438,서울특별시 영등포구 대림로 88 (3층) (대림동),02-833-1105,02-833-1104,8,216,1,0,0,89,0,37.49034098,126.9033468,운영,,1997-08-26,,,2015-11-30
서울특별시,영등포구,신이화어린이집,민간,폐지,07286,서울특별시 영등포구 문래동5가 선유로3길 23 ,02-2637-5881,--,13,571,3,24,0,207,0,37.51590741,126.8852868,운영,,1997-12-31,,,2023-11-25
서울특별시,영등포구,이웃어린이집,민간,폐지,07401,서울특별시 영등포구 대림로34다길 6 686-3 (2층) 이웃어린이집,02-831-3363,02-831-3363,4,81,1,0,0,32,0,37.4991198,126.8994694,,,1997-07-02,,,2013-07-01
서울특별시,영등포구,영신어린이집,국공립,정상,07388,서울특별시 영등포구 신길로 132 (신길동),02-833-2841,070-8668-1322,9,448,1,32,26,138,119,37.50398394,126.9107804,미운영,,2015-03-01,,,
서울특별시,영등포구,모범 어린이집,민간,폐지,07220,서울특별시 영등포구 국회대로37길 9 (당산동4가),02-2635-7272,02-2635-7273,9,124,2,6,0,49,0,37.52799075,126.899748,운영,mbschool@empas.com,2003-05-30,,,2017-08-31
서울특별시,영등포구,새봄어린이집,민간,폐지,07385,서울특별시 영등포구 도신로 142 (신길동),02-833-7744,--,4,98,0,5,0,37,0,37.50920382,126.907481,미운영,eos0928@naver.com,2005-09-30,,,2020-04-27
서울특별시,영등포구,KRX푸르니어린이집,직장,폐지,150977,서울특별시 영등포구 여의나루로 76 증권선물거래소 본관1층 푸르니어린이집 (여의도동),02-3774-4495,02-3774-4497,3,292,0,0,0,49,0,37.52281087,126.927984,,krxchildcare.com,2006-04-14,,,2012-02-29
서울특별시,영등포구,예승아트스쿨어린이집,민간,정상,07362,서울특별시 영등포구 신길로42길 10 ,02-846-4422,02-836-0558,7,223,1,15,14,94,50,37.5078418,126.9118136,운영,ys8464422@hanmail.net,1994-11-02,,,
서울특별시,영등포구,아이사랑어린이집,민간,폐지,07391,서울특별시 영등포구 가마산로88길 8 ,02-841-7723,--,4,113,0,0,0,45,0,37.50340524,126.920374,운영,,1996-08-03,,,2014-09-02
서울특별시,영등포구,서울노총홍익어린이집,민간,폐지,07244,서울특별시 영등포구 영등포동7가 국회대로44길 10 서울노총복지회관 1층 서울노총홍익어린이집,02-2068-5889,02-2068-5889,8,300,3,13,0,113,70,37.52489926282711,126.9035025135202,운영,cafe.daum.net/snochongik,2004-07-01,,,2021-03-08
서울특별시,영등포구,건강한현대어린이집,민간,정상,07376,서울특별시 영등포구 도신로 31 현대아파트 관리동,02-836-0073,02-836-0073,7,200,2,8,22,75,62,37.50501639566922,126.89558869134806,미운영,kkhank,1998-07-02,,,
서울특별시,영등포구,꼬마대통령어린이집,민간,정상,07355,서울특별시 영등포구 여의대방로47길 12 (신길동),02-842-5555,02-842-5570,4,90,0,7,15,34,32,37.509064542692855,126.92239983543715,운영,,2005-09-21,,,
서울특별시,영등포구,한나어린이집,민간,폐지,07392,서울특별시 영등포구 신풍로23길 13-1 ,02-841-7249,02-842-1537,4,125,1,4,0,39,0,37.50138105,126.918355,운영,,2001-02-27,,,2020-03-30
서울특별시,영등포구,남서울교회부설남서울어린이집,민간,폐지,07225,서울특별시 영등포구 버드나루로14가길 35 남서울교회부설남서울어린이집,02-2068-3466,02-2633-9460,19,691,3,24,0,159,0,37.53295961,126.9071821,운영,,2003-02-11,,,2016-08-31
서울특별시,영등포구,해달별 아이사랑어린이집,민간,폐지,07419,서울특별시 영등포구 대림로23가길 2-1 ,02-849-9746,02-849-9746,8,185,1,11,0,70,0,37.49297425,126.8987432,운영,,2006-02-28,,,2023-03-06
서울특별시,영등포구,한별어린이집,민간,폐지,07293,서울특별시 영등포구 문래로 151-3 ,02-2679-5512,02-2679-5523,5,169,1,8,0,49,0,37.51898646,126.8988531,미운영,5512.wownara.com,2004-05-31,,,2020-12-28
서울특별시,영등포구,아해뜰어린이집,민간,폐지,150800,서울 영등포구 당산동1가 186-108 ,02-2069-1066,02-2069-1066,0,0,0,0,0,23,0,,,,,2005-01-28,,,2008-02-04
서울특별시,영등포구,리틀아메리카어린이집,민간,폐지,150847,서울 영등포구 신길3동 316-7 ,02-832-2261,02-832-2261,0,0,0,0,0,27,0,,,,,2005-05-12,,,2009-04-03
서울특별시,영등포구,아기코끼리어린이집,민간,폐지,150847,서울특별시 영등포구 가마산로 456 (신길동),02-831-2280,02-842-5570,5,115,0,0,0,38,0,37.50558228,126.9070621,운영,,1997-01-30,,,2013-02-18
서울특별시,영등포구,신대림어린이집,민간,정상,07427,서울특별시 영등포구 디지털로 455-7 ,02-833-9600,02-6959-0108,7,179,1,9,10,49,29,37.4962861,126.9069488,미운영,,1995-05-23,,,
서울특별시,영등포구,평강어린이집,민간,폐지,07439,서울특별시 영등포구 대림로8길 39 평강어린이집 (대림동),02-848-0661,02-833-1516,2,105,0,3,0,27,0,37.49516338,126.907629,운영,,1998-08-31,,,2021-03-12
서울특별시,영등포구,예슬어린이집,가정,폐지,07267,서울특별시 영등포구 영신로47길 3-2 (당산동1가),02-2633-7156,--,2,39,0,4,0,13,0,37.52287185,126.9010902,미운영,네이버 까페 영등포예슬어린이집,2005-01-24,,,2021-11-24
서울특별시,영등포구,큰별어린이집,민간,폐지,07431,서울특별시 영등포구 신풍로 66 (신길동),02-841-0220,02-832-5466,5,115,0,4,0,39,0,37.49986511,126.9133057,운영,,2005-04-29,,,2018-07-31
서울특별시,영등포구,건강한어린이집,민간,폐지,07377,서울특별시 영등포구 대림로 251 (대림동),02-836-1187,02-836-1187,7,198,2,8,0,51,0,37.50291462,126.8959541,미운영,fstc2000@naver.com,1997-02-21,,,2020-08-30
서울특별시,영등포구,예담어린이집,민간,폐지,07205,서울특별시 영등포구 양평로22가길 6-1 ,02-2635-0453,02-2633-1009,4,250,2,13,0,71,0,37.53869219,126.8936559,미운영,http://cafe.daum.net/yedam0453,1995-04-03,,,2019-04-22
서울특별시,영등포구,아기파랑새어린이집,민간,폐지,07278,서울특별시 영등포구 선유서로21길 15 벽산상가 202동 203호,02-2634-6264,02-2634-1868,4,66,1,5,0,25,0,37.52228654,126.8830719,미운영,,1994-04-01,,,2023-06-30
서울특별시,영등포구,아해뜰어린이집,민간,폐지,07410,서울특별시 영등포구 도림로47길 27 (대림동),02-845-4005,02-2651-5200,9,220,1,15,0,80,0,37.49758189,126.899293,운영,,2006-02-16,,,2020-03-16
서울특별시,영등포구,당성어린이집,민간,정상,07265,서울특별시 영등포구 당산로18길 14-2 ,02-2069-2345,02-2069-2373,4,118,0,15,21,44,43,37.52281333,126.8977119,운영,http://cafe.daum.net/s.ds,2004-03-22,,,
서울특별시,영등포구,신나는어린이집,민간,폐지,07382,서울특별시 영등포구 신길로 199 (신길동),02-842-2110,02-842-2110,5,129,0,7,0,49,0,37.50652748,126.9043407,운영,,1994-01-19,,,2019-04-16
서울특별시,영등포구,참아름어린이집,민간,폐지,07350,서울특별시 영등포구 도신로60길 17-12 ,02-843-8608,02-842-8608,9,96,0,9,0,36,0,37.51042212,126.9181612,미운영,http://cyworld.com/cham8608,1997-02-28,,,2016-02-29
서울특별시,영등포구,영성어린이집,민간,정상,07228,서울특별시 영등포구 영중로33길 9 비동(영등포성결교회내) (영등포동8가),02-2676-4276,02-2672-4278,4,70,0,8,7,26,14,37.52608417,126.9044009,미운영,http://cafe.naver.com/ys4276,2005-01-28,,,
서울특별시,영등포구,한국어린이집,민간,폐지,07362,서울특별시 영등포구 신길로42라길 1 (신길동),02-849-5554,070-4009-1793,5,144,1,6,0,54,0,37.50764361,126.9127959,운영,https://blog.naver.com/hangukchild,2004-01-31,,,2020-03-10
서울특별시,영등포구,키드스쿨어린이집,민간,폐지,07416,서울특별시 영등포구 도림천로 379 (대림동),02-834-2645,02-846-2111,6,197,1,7,0,74,0,37.49110821,126.8963314,미운영,,1999-11-29,,,2020-03-31
서울특별시,영등포구,신길영신방과후 어린이집,법인·단체등,폐지,150841,서울특별시 영등포구 신길로 132 영신교회 신길영신방과후,02-833-8266,02-836-7171,3,180,0,2,0,40,0,37.50530033,126.9153793,미운영,영신교회,2006-07-25,,,2017-02-28
서울특별시,영등포구,딩동댕어린이집,민간,폐지,150072,서울 영등포구 대림2동 1032-1 ,02-849-0788,02-849-0788,0,202,0,0,0,51,0,,,,,1994-04-01,,,2009-12-16
서울특별시,영등포구,삼성아이어린이집,민간,정상,07225,서울특별시 영등포구 버드나루로 130 강변삼성래미안아파트 3차 관리동 1층,02-2677-2279,02-2677-2279,4,88,2,6,9,28,25,37.5305719628,126.9080115839,미운영,club.cyworld.com/samsungi,2003-02-07,,,
서울특별시,영등포구,삼두어린이집,가정,폐지,07319,서울특별시 영등포구 여의대방로59길 16-17 ,02-836-4329,02-836-4329,2,35,2,3,0,12,0,37.51454791,126.9242698,미운영,lmj4322@naver.com,1996-04-08,,,2018-04-30
서울특별시,영등포구,엄마랑아가랑어린이집,가정,정상,07353,서울특별시 영등포구 영등포로86가길 21 (신길동),02-843-6692,02-843-6692,3,37,1,4,6,13,6,37.51255963,126.9209457,미운영,,1991-07-16,,,
서울특별시,영등포구,키즈플레이어린이집,가정,폐지,07344,"서울특별시 영등포구 63로 7 B동 102호(여의도동, 은하아파트)",02-780-6552,--,4,50,0,0,0,20,0,37.51869428,126.9350836,미운영,,2004-04-28,,,2015-03-09
서울특별시,영등포구,예님어린이집,국공립,정상,07373,서울특별시 영등포구 도영로7길 10 (도림동),02-849-0466,02-849-0467,6,270,3,8,15,84,70,37.50944552,126.8959733,미운영,,2002-01-09,,,
서울특별시,영등포구,신풍어린이집,민간,폐지,07381,서울특별시 영등포구 가마산로41길 10 1층 (대림동),02-835-4654,02-835-4654,2,72,1,5,0,27,0,37.50252068,126.897671,운영,,1997-10-10,,,2020-04-20
서울특별시,영등포구,강성어린이스쿨어린이집,민간,정상,07429,서울특별시 영등포구 대림로 128-2 (대림동),02-833-5123,02-835-5123,8,221,2,24,14,78,63,37.49298451029246,126.90207356134316,운영,,1993-09-13,,,
서울특별시,영등포구,영신초등방과후교실,법인·단체등,폐지,150839,서울 영등포구 신길1동 121번지 ,02-833-3004,02-848-8598,0,0,0,0,1,20,21,,,,,1998-05-01,,,
서울특별시,영등포구,강남새 어린이집,민간,정상,07216,서울특별시 영등포구 당산로42길 16 현대5차아파트 단지내 (당산동4가),02-2676-9637,02-2676-9637,6,363,1,6,10,82,46,37.52963147,126.9008055,미운영,,2000-06-01,,,
서울특별시,영등포구,우리어린이집,법인·단체등,폐지,150043,서울 영등포구 당산동3가 559번지 ,02-2678-1588,02-2678-4018,0,0,0,0,0,41,0,,,,,1997-02-21,,,2009-04-23
서울특별시,영등포구,효성어린이집,민간,정상,07215,서울특별시 영등포구 당산로42길 13 효성아파트 1차 관리동1층 (당산동5가),02-2069-1770,02-2069-1702,4,92,0,5,9,32,25,37.5307754,126.9017323,미운영,,2000-10-16,,,
서울특별시,영등포구,동그라미 어린이집,가정,폐지,07362,서울특별시 영등포구 도신로56길 34 (신길동),02-847-1775,02-847-1775,2,49,0,3,0,17,0,37.50880027,126.9157064,미운영,,1996-06-26,,,2017-08-01
서울특별시,영등포구,리틀영일우리어린이집,가정,정상,07368,서울특별시 영등포구 도신로29사길 22 ,02-835-9488,02-835-9488,3,58,0,5,7,18,16,37.510866223013586,126.90640478459892,미운영,,1996-04-30,,,
서울특별시,영등포구,대우이화어린이집,민간,폐지,07365,서울특별시 영등포구 도신로29길 28 2단지내 대우이화어린이집 (영등포동),02-847-2243,02-847-2243,4,66,6,4,0,29,0,37.51041002,126.9045305,미운영,,2002-07-08,,,2018-02-28
서울특별시,영등포구,참좋은 어린이집,민간,폐지,07429,서울특별시 영등포구 대림로22길 4 2층 (대림동),02-845-3310,02-845-3310,3,56,0,3,0,23,0,37.49351377,126.9017218,운영,good33love@hanmail.net,2001-12-10,,,2018-06-28
서울특별시,영등포구,참고은어린이집,민간,정상,07410,서울특별시 영등포구 도림로47길 18-1 (대림동),02-849-3747,02-841-3747,6,110,0,16,6,39,15,37.49667715766925,126.90030462055183,미운영,http://cafe.daum.net/goeun77,1998-03-04,,,
서울특별시,영등포구,수정어린이집,민간,폐지,07408,서울특별시 영등포구 도림로63라길 9 (신길동),02-843-8888,02-849-8888,3,61,0,4,0,24,0,37.49949311,126.9014352,미운영,csh530504@hanmail.net,2004-03-12,,,2019-05-09
서울특별시,영등포구,예사랑 어린이집,민간,폐지,07429,서울특별시 영등포구 대림로 124 (대림동),02-831-8872,02-831-8872,4,77,0,0,0,29,0,37.49253592,126.9019894,운영,,1999-08-16,,,2017-06-02
서울특별시,영등포구,사과나무어린이집,민간,폐지,07355,서울특별시 영등포구 여의대방로47길 12 ,02-832-4337,02-832-4341,4,90,0,4,0,34,0,37.50495942,126.9126992,운영,,1996-06-12,,,2015-11-30
서울특별시,영등포구,크는나무어린이집,민간,폐지,07310,서울특별시 영등포구 신길로62길 1 1층 (영등포동),02-833-5554,02-833-5554,5,74,0,0,0,27,0,37.51582793,126.9127179,미운영,,2003-06-17,,,2014-10-20
서울특별시,영등포구,푸른숲어린이집,민간,정상,07264,서울특별시 영등포구 당산로 95 한전현대아파트 단지내 푸른숲어린이집 당산동2가,02-2636-3505,02-2634-8544,7,177,2,16,20,83,68,37.52358452,126.8949051,운영, cafe.daum.net/greenwoodsjmy,1997-01-07,,,
서울특별시,영등포구,나래놀이방,가정,폐지,150825,서울 영등포구 대림2동 1069-5 ,02-833-8119,--,2,27,0,0,0,12,0,,,,,2001-10-18,,,2010-05-11
서울특별시,영등포구,신리틀랜드어린이집,민간,폐지,150825,서울 영등포구 대림2동 1068-10호 ,011-9138-3029,02-843-5002,0,0,0,0,0,26,0,,,,,1997-11-03,,,2008-04-03
서울특별시,영등포구,선영어린이집,가정,재개,07348,서울특별시 영등포구 도신로54길 12-4 ,02-844-1999,02-844-1999,3,88,0,6,5,20,8,37.51052731,126.9146985,미운영,,1998-02-25,,,
서울특별시,영등포구,푸른솔어린이집,민간,폐지,07419,서울특별시 영등포구 디지털로37길 20-1 ,02-849-3029,02-843-5002,3,95,0,0,0,45,0,37.49109741,126.8980696,미운영,,2005-01-19,,,2013-07-29
서울특별시,영등포구,선유몬테소리어린이집,가정,정상,07204,"서울특별시 영등포구 양평로24길 9 104동 105호(양평동5가, 한신아파트)",02-2677-2339,02-2677-2339,3,67,5,5,6,20,12,37.54013232,126.8921478,미운영,cafe.naver.com/iseonyu,2005-04-21,,,
서울특별시,영등포구,엘림몬테소리어린이집,가정,폐지,150010,서울 영등포구 여의도동 40-4 화랑아파트 3동 202호 ,02-780-2720,--,0,65,0,0,0,20,0,,,,,1996-05-16,,,2010-01-25
서울특별시,영등포구,예지어린이집,민간,폐지,150812,서울 영등포구 대림3동 667-15  주현라이프3층 ,02-841-2261,02-841-2261,0,0,0,0,0,35,0,,,,,1997-01-31,,,2007-05-15
서울특별시,영등포구,작은또래어린이집,가정,정상,07204,"서울특별시 영등포구 양평로24길 9 102동 104호(양평동5가, 한신아파트)",02-2676-0994,--,3,94,2,4,7,20,18,37.54013232,126.8921478,미운영,,2006-06-22,,,
서울특별시,영등포구,예원어린이집,민간,폐지,07427,서울특별시 영등포구 디지털로 455-6 ,02-833-9600,02-832-4982,3,101,0,3,0,26,0,37.49680907,126.9071832,미운영,,1993-02-05,,,2019-06-01
서울특별시,영등포구,빛나어린이집,가정,폐지,07429,서울특별시 영등포구 대림로22길 10-1 1층,02-832-6248,02-832-6248,2,48,0,0,0,14,0,37.49385401,126.9021692,미운영,,2002-04-08,,,2015-06-11
서울특별시,영등포구,소망어린이집,가정,폐지,07353,서울특별시 영등포구 여의대방로53길 38-4 ,02-832-0924,02-832-0924,2,37,0,3,0,13,0,37.51240827,126.9207499,미운영,,2006-07-05,,,2022-09-13
서울특별시,영등포구,큰빛놀이방,가정,폐지,150054,서울 영등포구 신길동 243-40 ,02-833-2800,--,2,51,0,0,0,20,0,,,,,2004-05-08,,,2009-12-29
서울특별시,영등포구,꼬꼬마어린이집,국공립,정상,07437,"서울특별시 영등포구 여의대방로 25 104동 101호(신길동, 경남보라매아너스빌)",02-831-8255,02-831-8255,3,64,3,5,10,20,20,37.49560415,126.9107687,미운영,sohasan8@hanmail.net,2015-12-29,,,
서울특별시,영등포구,도림방과후교실어린이집,법인·단체등,정상,07373,서울특별시 영등포구 도영로 37 (도림동),02-2181-6130,02-834-5562,2,153,0,8,6,40,39,37.51017833,126.8971592,미운영,,2005-06-14,,,
서울특별시,영등포구,동화나라어린이집,민간,폐지,150847,서울 영등포구 신길3동 296-26 (2층) 동화나라어린이집 ,02-832-4361,--,0,0,0,0,0,30,0,,,,,1995-01-20,,,2008-03-07
서울특별시,영등포구,키드어린이집,민간,폐지,07416,서울특별시 영등포구 도림천로11길 3 (대림동),02-846-2131,02-846-2111,4,110,0,5,0,39,0,37.49109041,126.8965477,운영,,2003-12-16,,,2017-03-31
서울특별시,영등포구,완두콩어린이집,가정,폐지,07439,서울특별시 영등포구 디지털로 420 신대림2차 신동아 파밀리에 104동 103호,02-842-5695,02-842-5695,3,62,0,4,0,20,0,37.492986808365075,126.90488639857597,미운영,,2006-08-18,,,2024-04-16
서울특별시,영등포구,하바베이비어린이집,가정,폐지,150797,서울 영등포구 영등포동 대우드림타운 204동 101호 ,02-847-0601,--,0,0,0,0,0,17,0,,,,,2006-08-21,,,2008-03-12
서울특별시,영등포구,리틀동심원어린이집,민간,폐지,07385,서울특별시 영등포구 신길로41길 36 (신길동),02-833-0162,02-834-0162,5,88,0,2,0,22,0,37.5089507,126.9071963,미운영,,2006-09-05,,,2016-12-28
서울특별시,영등포구,파란나라어린이집,민간,폐지,150073,서울 영등포구 대림3동 652번지 ,02-844-7115,--,6,186,2,0,0,86,0,,,,,1997-03-11,,,2010-08-31
서울특별시,영등포구,크레용어린이집,민간,폐지,150854,서울 영등포구 신길7동 영등포구신길동754 ,011-9744-4874,02-844-4875,0,0,0,0,0,52,0,,,,,1997-11-17,,,2008-09-23
서울특별시,영등포구,비둘기어린이집,가정,폐지,07388,서울특별시 영등포구 신길로34길 10-1 ,02-831-9658,--,2,45,0,0,0,17,0,37.50502295,126.9118681,,,1992-05-06,,,2014-02-17
서울특별시,영등포구,코끼리어린이집,민간,재개,07383,서울특별시 영등포구 가마산로61가길 14 (신길동),02-831-2280,02-753-1607,9,299,2,16,23,99,72,37.50558228,126.9070621,미운영,,2006-09-26,,,
서울특별시,영등포구,대림2동어린이집,국공립,정상,07419,서울특별시 영등포구 대림로23길 27 구립대림2동어린이집,02-832-9909,02-849-9908,6,192,3,15,12,79,50,37.4926207299,126.8980801055,미운영,,1990-11-30,,,
서울특별시,영등포구,도림어린이집,사회복지법인,정상,07373,서울특별시 영등포구 도영로 37 (도림동),02-2181-6090,02-834-0988,5,215,1,8,15,79,70,37.51017833,126.8971592,미운영,http://educare.dorim.net,1994-01-01,,,
서울특별시,영등포구,위즈키즈어린이집,민간,재개,07362,서울특별시 영등포구 가마산로79길 7 (신길동) 삼성래미안아파트 제1상가,02-841-8387,02-6265-8387,3,86,0,6,12,32,25,37.505126250859554,126.91456626744404,미운영,,2002-12-23,,,
서울특별시,영등포구,황토나라어린이집,민간,폐지,07211,"서울특별시 영등포구 양평동3가 선유로 201 (양평동3가, 양평동6차현대아파트 관리동)",02-2676-7111,02-2679-7111,6,105,0,6,0,36,0,37.531356515530966,126.89379157429069,운영,taehamam@hanmail.net,2001-09-01,,,2018-02-28
서울특별시,영등포구,햇살가득어린이집,가정,정상,07365,"서울특별시 영등포구 도신로29길 28 214동 101호(영등포동, 영등포푸르지오2단지아파트)",02-843-2282,02-711-1260,3,60,7,4,7,20,20,37.51181664,126.9036672,미운영,,2006-11-03,,,
서울특별시,영등포구,엠비씨푸르니어린이집,직장,폐지,07322,"서울특별시 영등포구 여의나루로 7 3동 103호(여의도동, 광장아파트)",02-784-2207,--,3,56,2,0,0,20,0,37.52078177,126.920963,미운영,www.puruni.com,2006-10-02,,,2014-02-26
서울특별시,영등포구,탄탄어린이집,가정,폐지,07347,서울특별시 영등포구 신길로42가길 3-1 ,02-846-7123,02-846-0133,2,32,0,0,0,12,0,37.50862568,126.9117128,미운영,jung1790 @ hanmail.net,2006-10-17,,,2015-07-20
서울특별시,영등포구,영이어린이집,국공립,폐지,07303,서울특별시 영등포구 영중로4길 31 (영등포동3가),02-2631-0283,02-2631-0117,4,187,1,5,0,52,0,37.51800237,126.9096163,미운영,,1996-12-05,,,2024-09-01
서울특별시,영등포구,KBS어린이집,직장,정상,07235,서울특별시 영등포구 여의공원로 13 ,02-781-2496,02-781-2499,13,471,1,28,41,173,119,37.52560431,126.9164565,미운영,,1995-08-04,,,
서울특별시,영등포구,리틀디모데어린이집,가정,폐지,07355,서울특별시 영등포구 영등포로86길 19 (신길동),02-832-7002,02-834-0317,2,52,0,3,0,19,0,37.51118703,126.9229845,미운영,,2006-08-30,,,2021-09-06
서울특별시,영등포구,베베몬테소리어린이집,가정,폐지,07279,"서울특별시 영등포구 영등포로12길 8 1동 101호(양평동1가, 신동아아파트)",02-3667-7847,--,3,38,0,4,0,13,0,37.52221151,126.8865766,미운영,,2006-12-12,,,2021-08-04
서울특별시,영등포구,한솔어린이집,가정,폐지,07448,"서울특별시 영등포구 도림천로 431 105동 101호(대림동, 대림한솔 솔파크)",02-833-3535,02-833-3535,3,54,1,4,0,20,0,37.4872898,126.899444,미운영,,1998-12-31,,,2022-02-28
서울특별시,영등포구,리틀새록어린이집,가정,폐지,150822,서울 영등포구 대림1동 976-27 ,02-845-1162,02-831-8137,0,0,0,0,0,20,0,,,,,2006-11-28,,,2008-01-04
서울특별시,영등포구,하늘어린이집,가정,정상,07344,"서울특별시 영등포구 63로 45 11동 12호(여의도동, 여의도시범아파트)",02-782-7809,02-6265-2388,3,70,0,4,5,20,19,37.52076437,126.9370282,미운영,limmiry@naver.com,2007-01-04,,,
서울특별시,영등포구,르메이에르 어린이집,직장,폐지,150762,서울 영등포구 여의도동 광장아파트 3동 103호 ,010-3223-1604,--,0,0,0,0,0,20,0,,,,,2003-10-06,,,2008-06-23
서울특별시,영등포구,즐거운코뿔소어린이집,민간,폐지,07279,서울특별시 영등포구 양평동1가 문래북로 31 양평동1가 13-25,02-3667-6686,02-2679-6831,6,250,1,7,0,74,0,37.5213940434,126.888792137,운영,,2006-11-24,,,2024-02-29
서울특별시,영등포구,개나리어린이집,민간,폐지,150811,서울 영등포구 대림3동 605-27호 ,018-213-8820,--,0,0,0,0,0,24,0,,,,,2000-03-02,,,2008-04-24
서울특별시,영등포구,연세어린이집,민간,폐지,07298,서울특별시 영등포구 문래동3가 당산로 26 문래자이아파트 관리사무소1층,02-2676-9783,--,3,71,1,0,0,32,0,37.51611176,126.8967834,미운영,,2002-05-29,,,2016-03-23
서울특별시,영등포구,샤론 어린이집,가정,폐지,150822,서울 영등포구 대림1동 987-24 영우빌라 101호 ,02-836-4219,--,2,27,0,0,0,10,0,,,,,2006-05-23,,,2010-08-04
서울특별시,영등포구,경남몬테소리어린이집,민간,폐지,150781,서울 영등포구 신길6동 경남보라매아너스빌 관리동어린이집 ,02-845-0909,02-6232-0909,0,0,0,0,0,28,0,,,,http://sungsim0909.0363.net,2007-02-26,,,2009-05-30
서울특별시,영등포구,하늘빛 어린이집,가정,폐지,07221,"서울특별시 영등포구 영신로57길 5 101동 101호(당산동4가, 서초한강아파트)",02-2677-4207,--,3,54,3,5,0,19,0,37.52799513,126.9028331,미운영,,2003-07-29,,,2020-03-11
서울특별시,영등포구,큰당성어린이집,민간,폐지,07265,서울특별시 영등포구 영등포로25길 23-19 ,02-2069-2356,02-2069-2354,3,117,0,8,0,43,0,37.52312729,126.8972718,미운영,http://cafe.daum.net/b.d.s,2007-02-26,,,2019-04-23
서울특별시,영등포구,흰돌교회방과후교실,법인·단체등,폐지,150824,서울 영등포구 대림2동 1019-7 ,02-841-4451,02-841-4453,2,214,0,0,0,20,0,,,,,2007-03-02,,,2012-03-06
서울특별시,영등포구,상아랜드어린이집,민간,폐지,07436,서울특별시 영등포구 신길로8길 11 (신길동),02-836-0882,02-836-0883,3,99,2,3,0,37,0,37.495788,126.9096985,미운영,cafe.daum.net/sangaland,2006-01-17,,,2020-06-04
서울특별시,영등포구,무지개영재어린이집,민간,폐지,07261,서울특별시 영등포구 양산로17길 8 무지개 영재 어린이집 (당산동3가),02-2675-0324,02-2675-0311,22,659,1,0,0,240,0,37.52507803,126.8937065,운영,,2006-10-18,,,2014-02-28
서울특별시,영등포구,영재놀이방,가정,폐지,150818,서울 영등포구 대림1동 886-2 번지 ,010-3231-0719,--,0,27,0,0,0,10,0,,,,,2004-12-28,,,2009-12-29
서울특별시,영등포구,청구 어린이집,가정,정상,07372,"서울특별시 영등포구 도영로7길 5 101동 112호(도림동, 도림청구아파트)",02-849-8859,--,3,59,1,4,10,20,20,37.50930281,126.8955501,미운영,,2007-03-29,,,
서울특별시,영등포구,코오롱미소천사어린이집,가정,정상,07376,"서울특별시 영등포구 도영로 2-5 102동 102호(대림동, 대림코오롱아파트)",02-843-3215,02-843-3215,3,96,0,4,8,20,20,37.50698391,126.8947235,미운영,,2007-03-29,,,
서울특별시,영등포구,영등포사임당어린이집,민간,정상,07244,서울특별시 영등포구 양산로 177 경남아너스빌아파트 관리동 (영등포동7가),02-2676-0579,--,5,86,1,5,8,30,15,37.52387114,126.9026458,미운영,,2005-01-28,,,
서울특별시,영등포구,위즈아이어린이집,민간,폐지,07362,서울특별시 영등포구 가마산로79길 7 삼성래미안아파트 1단지 정문입구,02-841-8386,02-841-8386,6,90,2,8,0,33,0,37.50530033,126.9153793,운영,http://cafe.daum.net/wizi1004,2007-05-18,,,2018-02-28
서울특별시,영등포구,펠리스어린이집,민간,폐지,07414,서울특별시 영등포구 대림로31가길 16 (대림동),02-849-3027,02-843-5002,7,300,1,13,0,99,0,37.49098469,126.8977705,운영,,2007-06-29,,,2022-02-28
서울특별시,영등포구,KDB꿈나무어린이집,직장,폐지,07242,서울특별시 영등포구 은행로 22 한국정책금융공사 1층 (여의도동),02-780-1047,02-780-1049,3,148,2,0,0,49,0,37.52779334,126.9220149,미운영,www.puruni.com/kdb,2007-06-27,,,2013-03-01
서울특별시,영등포구,남서울교회부설방과후교실,법인·단체등,폐지,150808,서울 영등포구 당산동6가 121-98 ,02-2068-3466,--,2,113,0,0,0,40,0,,,,,2006-12-28,,,2010-09-02
서울특별시,영등포구,토마토어린이집,가정,폐지,07427,서울특별시 영등포구 디지털로 455-7 1층,02-833-9600,02-832-4982,4,45,0,3,0,17,0,37.4962861,126.9069488,미운영,,2007-09-19,,,2019-06-01
서울특별시,영등포구,리틀청담어린이집,가정,폐지,07216,"서울특별시 영등포구 당산로42길 16 502동 102호(당산동4가, 현대5차아파트)",02-2633-5514,--,4,57,0,6,0,20,0,37.52963147,126.9008055,미운영,,2007-09-28,,,2017-02-28
서울특별시,영등포구,영일우리어린이집,민간,폐지,07366,서울특별시 영등포구 영신로9나길 8 (영등포본동),02-835-1232,02-835-1272,3,93,0,8,0,34,0,37.51311767,126.9067702,미운영,http://cafe.daum.net/8351272,2007-10-19,,,2022-03-28
서울특별시,영등포구,우리누리어린이집,직장,정상,07209,서울특별시 영등포구 선유로 243 ,02-3667-0801,02-3667-0807,4,411,1,16,14,45,39,37.53478974,126.895766,미운영,,2007-10-05,,,
서울특별시,영등포구,킨더리베어린이집,가정,정상,07360,"서울특별시 영등포구 여의대방로43나길 25 101동 108호(신길동, 삼환아파트)",02-847-7893,02-847-7893,3,43,2,4,8,16,14,37.5066253551,126.9207895602,미운영,liebe7893@hanmail.net,2008-03-05,,,
서울특별시,영등포구,성심에코비어린이집,가정,폐지,07437,"서울특별시 영등포구 여의대방로 25 101동 103호(신길동, 경남보라매아너스빌)",02-6232-0909,02-6232-0909,3,52,0,0,0,19,0,37.49560415,126.9107687,미운영,http://sg-an.ecobee.kr/,2008-04-08,,,2015-09-15
서울특별시,영등포구,행복가득어린이집,가정,폐지,07287,"서울특별시 영등포구 문래동4가 도림로143길 27 202동 103호(문래동4가, 리버뷰신안인스빌)",02-6401-9396,02-6401-9396,3,54,1,4,0,20,0,37.51415855,126.8886396,미운영,,2008-06-01,,,2022-01-07
서울특별시,영등포구,하나푸르니신길어린이집,국공립,정상,07362,서울특별시 영등포구 신길로40길 5 (신길동),02-831-2544,02-831-2546,9,498,2,31,38,148,115,37.50710215,126.911727,미운영,hanasgil.modoo.at,2008-10-24,,,
서울특별시,영등포구,한국휴렛팩커드푸르니 어린이집,직장,정상,07332,서울특별시 영등포구 국제금융로8길 27-8 엔에이치농협캐피탈빌딩 2층,02-780-7037,02-780-7039,4,182,1,20,6,60,3,37.519416330281096,126.92835048215785,미운영,www.puruni.com/hpe,2009-02-27,,,
서울특별시,영등포구,별님스타키즈 어린이집,민간,정상,07217,서울특별시 영등포구 당산로41길 17 ,02-2633-4533,02-2633-8453,6,247,1,8,5,80,15,37.5316984722,126.8973888592,미운영,,2009-03-19,,,
서울특별시,영등포구,대원꼬마숲어린이집,가정,정상,07283,서울특별시 영등포구 문래로4길 26 대원칸타빌 101동 104호 (문래동6가),02-2633-7940,02-2633-7940,3,53,0,4,9,19,18,37.51867581,126.882662,미운영,http://www.littleforest.co.kr/home/childlike802/default.asp,2009-07-30,,,
서울특별시,영등포구,비손어린이집,가정,정상,07287,"서울특별시 영등포구 도림로143길 32 101동 104호(문래동4가, 문래동삼환아파트)",02-2068-2111,02-2068-2111,3,66,1,4,7,20,20,37.51373028,126.8894717,미운영,,2009-09-30,,,
서울특별시,영등포구,아너스빌어린이집,민간,폐지,07437,서울특별시 영등포구 여의대방로 25 경남아너스빌아파트 관리동 (신길동),02-849-4279,02-849-4279,5,89,0,6,0,28,0,37.49490141,126.9100925,미운영,,2009-10-19,,,2018-04-01
서울특별시,영등포구,문래동어린이집,국공립,정상,07288,서울특별시 영등포구 도림로141가길 16 (문래동4가),02-2672-9990,02-2672-9991,3,169,0,3,9,35,34,37.51547069,126.8913485,미운영,,2009-12-09,,,
서울특별시,영등포구,국회제2어린이집,직장,정상,07233,서울특별시 영등포구 의사당대로 1 (여의도동),02-6788-4794,02-6788-4795,12,527,2,30,45,170,112,37.53110328,126.9165478,미운영,,2010-02-24,,,
서울특별시,영등포구,하늘사랑어린이집,가정,정상,07279,"서울특별시 영등포구 영등포로12길 8 3동 107호(양평동1가, 신동아아파트)",02-2678-6849,02-2678-6849,3,45,1,5,8,16,15,37.52221151,126.8865766,미운영,,2010-03-04,,,
서울특별시,영등포구,삼환놀이방,가정,폐지,07350,"서울특별시 영등포구 여의대방로43라길 9 101동 103호(신길동, 삼환아파트)",02-844-5803,--,2,26,0,0,0,10,0,37.50794033,126.9193066,,,2004-10-26,,,2011-10-17
서울특별시,영등포구,남서울교회부설 꿈이있는어린이집,민간,정상,07431,서울특별시 영등포구 신풍로16길 1 꿈이있는 어린이집,02-833-7213,02-833-7214,6,228,2,8,15,73,54,37.49934052,126.9152461,운영,https://www.instagram.com/dream.center__/,2010-04-22,,,
서울특별시,영등포구,당산사임당어린이집,가정,정상,07220,"서울특별시 영등포구 당산로36길 12 203동 102호(당산동4가, 삼성아파트)",02-2672-2250,02-596-4650,3,62,0,4,5,20,14,37.52771862,126.8984894,미운영,http://cafe.naver.com/dangsansaimdang,2010-05-11,,,
서울특별시,영등포구,자연어린이집,가정,폐지,07283,"서울특별시 영등포구 문래로4길 14 101동 104호(문래동6가, 현대아파트)",02-2679-0671,02-2679-0671,3,51,1,4,0,19,0,37.519402560786894,126.88292196255074,미운영,,2010-05-11,,,2019-03-01
서울특별시,영등포구,삼성래미안어린이집,가정,정상,07276,"서울특별시 영등포구 양평동2가 영등포로3길 9 105동 106호(양평동2가, 양평삼성아파트)",02-830-5755,02-2633-5756,3,61,0,4,8,20,20,37.52434698,126.8825717,미운영,,2010-06-07,,,
서울특별시,영등포구,아이숲어린이집,가정,폐지,07295,"서울특별시 영등포구 문래로 94-7 101동 107호(문래동3가, 문래건영아파트)",02-6104-7912,02-6104-7912,3,46,0,4,0,16,0,37.5185038,126.8923319,미운영,,2010-07-05,,,2019-03-01
서울특별시,영등포구,늘푸른어린이집,가정,정상,07374,"서울특별시 영등포구 도신로15라길 5-7 101동 103호(도림동, 한라아파트)",02-833-3700,02-833-9700,3,55,1,4,6,19,14,37.50772076,126.897305,미운영,,2010-07-09,,,
서울특별시,영등포구,여의동어린이집,국공립,정상,07343,서울특별시 영등포구 국제금융로 124 (여의도동),02-786-2727,02-786-2929,4,155,1,8,13,45,43,37.51766359,126.9345949,미운영,,2010-07-23,,,
서울특별시,영등포구,천사어린이집,가정,폐지,07213,"서울특별시 영등포구 당산동5가 선유동2로 56 202동 107호(당산동5가, 유원제일2차아파트)",070-4300-1006,--,3,58,0,4,0,20,0,37.53302907,126.8981725,미운영,,2010-08-24,,,2021-04-20
서울특별시,영등포구,사랑가득어린이집,가정,폐지,07287,"서울특별시 영등포구 도림로143길 27 202동 103호(문래동4가, 리버뷰신안인스빌아파트)",02-6401-9396,--,3,63,1,0,0,20,0,37.51320619,126.8902723,미운영,,2010-08-11,,,2013-04-17
서울특별시,영등포구,비율라어린이집,민간,폐지,07288,서울특별시 영등포구 도림로141가길 33-4 ,02-2633-6651,02-2633-6651,6,193,1,8,0,73,0,37.51612167,126.8892846,운영,,2010-08-31,,,2023-03-06
서울특별시,영등포구,에코비 어린이집,가정,폐지,07215,"서울특별시 영등포구 당산동5가 당산로42길 25 2동 105호(당산동5가, 상아아파트)",02-3667-5516,02-2068-5515,4,116,1,4,0,20,0,37.53001092,126.902755,미운영,,2010-10-14,,,2017-03-17
서울특별시,영등포구,은빛어린이집,가정,정상,07380,"서울특별시 영등포구 도신로 68 106동 107호(신길동, 신길우성1차아파트)",070-4046-2274,02-845-2278,3,64,0,3,6,15,14,37.50530872211241,126.90022245764801,미운영,,2010-11-09,,,
서울특별시,영등포구,울타리놀이방,가정,폐지,150055,서울 영등포구 신길5동 402-34 ,02-0000-0000,--,0,0,0,0,0,15,0,,,,,1998-06-16,,,2005-03-15
서울특별시,영등포구,양평늘푸른어린이집,가정,정상,07211,"서울특별시 영등포구 양평동3가 선유로 207 609동 102호(양평동3가, 현대6차아파트)",02-2672-0224,02-2672-0224,3,72,0,4,7,20,20,37.5320088434,126.8937951748,미운영,,2010-12-20,,,
서울특별시,영등포구,아이꿈터어린이집,가정,폐지,07217,"서울특별시 영등포구 당산로41길 17 103동 105호(당산동4가, 현대)",02-2068-0011,02-2068-0011,3,78,0,4,0,18,0,37.53146213,126.8967214,미운영,,2011-01-24,,,2017-02-28
서울특별시,영등포구,라온누리어린이집,가정,폐지,07374,"서울특별시 영등포구 도림로 365 103동 101호(도림동, 동아에코빌)",02-6080-9842,070-8731-3799,3,97,0,4,0,20,2,37.50920049,126.8986813,미운영,,2011-02-01,,,2023-03-02
서울특별시,영등포구,금빛어린이집,가정,폐지,07380,"서울특별시 영등포구 도림로 313 가동 104호(신길동, 건영아파트)",070-4312-2274,02-832-2274,3,60,0,3,0,14,0,37.50432018,126.900972,미운영,,2011-02-16,,,2023-03-15
서울특별시,영등포구,대우프뢰벨어린이집,가정,폐지,07365,"서울특별시 영등포구 도신로29길 28 203동 101호(영등포동, 영등포푸르지오2단지아파트)",070-8713-7000,02-833-7474,3,91,0,4,0,20,0,37.51041002,126.9045305,미운영,,2011-03-23,,,2019-04-10
서울특별시,영등포구,다니엘어린이집,가정,폐지,07298,서울특별시 영등포구 문래동3가 당산로4길 12 111-102(문래자이),02-2672-0998,--,3,84,0,4,0,19,0,37.5162769232,126.8973918801,미운영,,2011-04-05,,,2019-05-02
서울특별시,영등포구,브레인어린이집,민간,폐지,07383,서울특별시 영등포구 가마산로61가길 9-13 ,02-832-2261,--,3,109,0,5,0,21,0,37.50667805,126.9061006,미운영,,2011-04-19,,,2017-02-28
서울특별시,영등포구,아이네오어린이집,민간,정상,07256,서울특별시 영등포구 당산동3가 당산로31길 32 ,070-4327-0802,070-8275-0801,4,153,0,8,12,49,35,37.52769435354669,126.893244685654,미운영,,2011-04-19,,,
서울특별시,영등포구,아이뜰 어린이집,가정,폐지,07209,"서울특별시 영등포구 양평로17길 36 1동 110호(양평동4가, 성원아파트)",070-8734-1722,070-8734-1722,3,96,0,4,0,20,0,37.53406199,126.8937752,미운영,,2011-04-25,,,2017-03-01
서울특별시,영등포구,은아어린이집,가정,정상,07282,"서울특별시 영등포구 선유서로 40 101동 101호(문래동6가, 베어스타운아파트)",02-6166-3072,02-6166-3072,3,95,0,4,7,20,19,37.51913822,126.8850646,미운영,,2011-05-13,,,
서울특별시,영등포구,열린세상어린이집,가정,정상,07270,"서울특별시 영등포구 선유로33길 22 101동 106호(양평동3가, 양평경남아파트)",02-2672-9333,--,3,84,0,4,9,19,19,37.52723237,126.8881379,미운영,,2011-07-14,,,
서울특별시,영등포구,리틀거성 어린이집,가정,폐지,07210,"서울특별시 영등포구 선유로43가길 24 105동 104호(양평동3가, 거성파스텔아파트)",070-4084-9681,--,3,98,0,4,0,20,0,37.53142678253566,126.89201036636277,미운영,,2011-09-29,,,2020-03-12
서울특별시,영등포구,금융투자협회푸르니어린이집,직장,정상,07327,서울특별시 영등포구 여의나루로 67-8 ,02-780-7789,02-780-7748,6,296,2,32,32,112,85,37.52406527254669,126.9260310216329,미운영,,2011-10-27,,,
서울특별시,영등포구,꼬꼬마한사랑 어린이집,가정,폐지,07210,서울특별시 영등포구 양평동3가 선유로43가길 24 107동 101호(거성파스텔아파트),02-6265-3446,--,3,84,0,4,0,20,0,37.531426982666524,126.8920129606782,미운영,,2011-12-02,,,2021-03-16
서울특별시,영등포구,한국수출입은행 꿈누리 어린이집,직장,정상,07242,서울특별시 영등포구 은행로 38 ,02-6255-5696,02-6255-5699,12,615,4,41,48,156,109,37.5286370114368,126.923401755054,미운영,http://www.puruni.com/koreaexim,2012-02-20,,,
서울특별시,영등포구,케이알엑스푸르니어린이집,직장,정상,07329,서울특별시 영등포구 여의나루로 76 ,02-3774-4495,02-3774-4497,11,643,2,54,51,200,150,37.52291326651,126.928041251312,미운영,,2012-02-24,,,
서울특별시,영등포구,흰돌교회 방과후 어린이집,법인·단체등,폐지,07443,서울특별시 영등포구 대림로 107 ,02-841-4451,02-841-4453,2,214,0,0,0,20,0,,,,,2007-03-02,,,2012-03-04
서울특별시,영등포구,KDB어린이집,직장,정상,07242,서울특별시 영등포구 은행로 14 한국산업은행,02-787-4365,02-3775-3251,8,466,1,28,31,151,75,37.5271216140956,126.920833030447,미운영,www.puruni.com/kdb2,2012-03-23,,,
서울특별시,영등포구,쌍용어린이집,민간,폐지,07372,서울특별시 영등포구 도영로7길 15 (도림동),02-3289-7771,070-8224-9008,7,115,0,10,0,43,0,37.5092642839281,126.894173602275,미운영,,2012-04-06,,,2023-06-07
서울특별시,영등포구,키즈꿈나무어린이집,가정,폐지,07287,서울특별시 영등포구 도림로143길 32 삼환아파트 102동 101호,02-6671-9448,02-6671-9448,3,83,0,4,0,19,0,37.5135202449327,126.889910082825,미운영,,2012-04-06,,,2022-01-21
서울특별시,영등포구,행복드림어린이집,가정,정상,07295,서울특별시 영등포구 문래로20길 14 문래공원한신아파트 2동 101호,02-3667-7959,02-2634-5979,3,80,0,4,7,18,14,37.5173831895493,126.893216334033,미운영,,2012-04-10,,,
서울특별시,영등포구,베네베네어린이집,가정,정상,07264,서울특별시 영등포구 당산로 95 현대아파트 106동  107호,070-7857-8558,02-6499-3888,3,82,0,4,7,19,16,37.5240232207884,126.894862885578,미운영,,2012-04-16,,,
서울특별시,영등포구,첼시어린이집,가정,폐지,07216,서울특별시 영등포구 당산동4가 당산로42길 16 502동 102호,02-6332-2580,070-7617-2950,3,114,0,4,0,20,0,37.5291955404747,126.903906139757,미운영,,2012-04-16,,,2023-03-17
서울특별시,영등포구,현대어린이집,가정,정상,07283,서울특별시 영등포구 선유서로 31 현대6차아파트 601동 101호,02-6341-7171,02-6341-7171,3,94,0,4,7,20,18,37.518938900969,126.88439546685,미운영,,2012-05-03,,,
서울특별시,영등포구,동화숲어린이집,가정,정상,07376,서울특별시 영등포구 도신로 31 현대3차아파트 304동 104호,02-845-1271,--,2,51,0,4,6,17,14,37.5054675325302,126.896232878124,미운영,,2012-05-03,,,
서울특별시,영등포구,사랑나무어린이집,가정,폐지,07380,서울특별시 영등포구 도림로 313 건영아파트 라동 101호,070-7857-2133,02-6335-2133,4,53,0,4,0,20,0,37.50546836807829,126.90149629218133,미운영,,2012-05-11,,,2019-05-24
서울특별시,영등포구,해피아이 어린이집,가정,정상,07411,서울특별시 영등포구 가마산로 312 신동아아파트 3동 102호,02-833-9722,02-6225-0770,3,84,0,4,6,19,17,37.4966794846481,126.894548961135,미운영,,2012-05-15,,,
서울특별시,영등포구,현대 키즈맘 어린이집,가정,폐지,07377,서울특별시 영등포구 도신로4길 14 현대아파트 101동 109호,02-848-1007,02-848-1007,3,84,0,5,0,19,0,37.5023823704893,126.896069833552,미운영,,2012-05-18,,,2024-03-04
서울특별시,영등포구,행복한어린이집,가정,정상,07365,서울특별시 영등포구 도신로29길 28 영등포푸르지오 112동 104호,02-6326-7127,--,3,65,0,4,7,20,19,37.511906377196965,126.90286545593489,미운영,,2012-05-30,,,
서울특별시,영등포구,단비어린이집,가정,폐지,07340,서울특별시 영등포구 국제금융로7길 20 대교아파트 2동 111호,070-7624-0188,--,4,70,0,4,0,20,0,37.52252700723532,126.93298282867127,미운영,,2012-05-30,,,2019-04-22
서울특별시,영등포구,새싹어린이집,가정,폐지,07438,서울특별시 영등포구 대림로10길 15-1 1층,02-845-7778,--,3,68,0,0,0,15,0,37.4917506040497,126.9045066978156,미운영,,2012-05-30,,,2016-11-21
서울특별시,영등포구,꿈동산어린이집,민간,정상,07310,서울특별시 영등포구 신길로62가길 1-2 ,02-833-3559,02-841-9146,3,90,0,4,4,21,9,37.5144750230186,126.91541734156615,미운영,,2012-06-20,,,
서울특별시,영등포구,해누리어린이집,가정,정상,07379,서울특별시 영등포구 대림로 256 성원아파트 101동 103호,02-6105-5113,--,3,59,0,4,8,19,18,37.50332341415148,126.89652088486467,미운영,,2012-07-04,,,
서울특별시,영등포구,더크는어린이집,민간,폐지,07438,서울특별시 영등포구 대림로8길 9-10 ,02-848-5695,02-835-5695,5,135,0,8,0,29,0,37.49101579272708,126.90500065561346,미운영,,2012-07-20,,,2023-05-06
서울특별시,영등포구,즐거운어린이집,가정,폐지,07217,서울특별시 영등포구 당산로41길 23 당산현대아파트 101동 102호,02-6269-3939,02-6269-3939,3,84,0,4,0,20,0,37.53206956760151,126.89740832707054,미운영,,2012-08-02,,,2017-02-28
서울특별시,영등포구,삼환어린이집,가정,폐지,07227,서울특별시 영등포구 영중로 145 삼환아파트 104동 101호,02-2679-5967,--,3,60,0,4,0,20,0,37.529257262988864,126.90445814749377,미운영,,2012-09-12,,,2022-09-30
서울특별시,영등포구,123목화어린이집,가정,폐지,07385,서울특별시 영등포구 신길로45길 4-2 ,02-849-9111,02-849-9112,3,62,0,3,0,16,0,37.5096236988021,126.9101432568504,미운영,,2012-12-05,,,2021-05-27
서울특별시,영등포구,보보키즈어린이집,가정,폐지,07380,"서울특별시 영등포구 도신로 68 102동 103호(신길동,신길우성아파트)",02-6335-6004,02-6335-6004,3,55,0,5,0,19,0,37.50576257477675,126.89979276847622,미운영,,2012-12-05,,,2022-03-10
서울특별시,영등포구,로얄키즈어린이집,가정,폐지,07292,서울특별시 영등포구 당산로 68 진로아파트 104동 101호,02-6166-5993,02-6166-5993,3,67,0,8,0,20,0,37.52090967982558,126.8951931034754,미운영,,2012-12-14,,,2023-09-15
서울특별시,영등포구,꿈이크는어린이집,가정,정상,07382,서울특별시 영등포구 도신로 100 신길우성5차아파트 502동 105호,02-849-1221,02-831-6620,3,70,0,4,7,20,19,37.50673854277263,126.90320702889397,미운영,,2012-12-26,,,
서울특별시,영등포구,리틀푸른어린이집,민간,정상,07442,서울특별시 영등포구 시흥대로181길 17 ,02-856-0552,--,5,170,0,8,8,49,22,37.49101787856108,126.90600693456963,운영,,2012-11-29,,,
서울특별시,영등포구,꿈사랑 어린이집,가정,폐지,07376,서울특별시 영등포구 도영로 2-5 (대림동코오롱아파트) 105-102호,02-6268-7111,02-6268-7111,3,51,0,4,0,19,0,37.507145276894875,126.894325927576,미운영,,2013-01-07,,,2018-12-01
서울특별시,영등포구,꿈꾸는 어린이집,가정,폐지,07219,서울특별시 영등포구 국회대로29길 13 (당산동4가) 유원제일아파트 5동 106호,02-2636-8717,02-2636-8717,3,46,0,4,0,17,0,37.530334622814195,126.89579517857871,미운영,,2013-01-31,,,2019-04-10
서울특별시,영등포구,조형아트스쿨어린이집,민간,폐지,07356,서울특별시 영등포구 여의대방로47길 24-2 ,02-832-3234,02-847-3234,8,249,1,13,0,94,0,37.508896760149604,126.92155388239996,운영,,2013-02-13,,,2018-02-28
서울특별시,영등포구,한신엄마품어린이집,가정,정상,07204,서울특별시 영등포구 양평동5가 양평로24길 9 한신아파트 103동 101호,02-2677-5054,02-2677-5054,3,84,0,4,7,19,14,37.53937762783361,126.89253279940712,미운영,,2013-02-22,,,
서울특별시,영등포구,맘사랑어린이집,가정,폐지,07344,"서울특별시 영등포구 국제금융로 109 A동 111호 (여의도동,삼익아파트)",02-786-2220,02-786-2220,4,123,0,4,0,20,0,37.51941720074432,126.93372772682926,미운영,,2013-02-25,,,2021-03-25
서울특별시,영등포구,KDB꿈나무어린이집,직장,정상,07242,서울특별시 영등포구 은행로 22 산업은행 별관 1층,02-780-9066,02-780-9034,4,193,1,15,15,69,24,37.5278179913344,126.92202694022578,미운영,www.puruni.com/kofc,2013-03-04,,,
서울특별시,영등포구,LG사랑어린이집,직장,정상,07336,서울특별시 영등포구 여의대로 128 LG트윈타워,02-3773-1300,--,5,267,2,26,26,80,77,37.52792714101523,126.92924004604902,미운영,,2013-03-05,,,
서울특별시,영등포구,목화마을어린이집,국공립,정상,07299,서울특별시 영등포구 문래동3가 경인로 775 에이스하이테크시티 1-101,02-2636-8001,02-2636-0857,4,138,0,8,11,49,42,37.514748,126.89754,미운영,,2013-04-23,,,
서울특별시,영등포구,삼육어린이집,가정,정상,07278,"서울특별시 영등포구 양평동2가 선유서로21길 19 101동104호(양평동2가, 양평동벽산블루밍아파트)",02-2631-7676,--,3,46,0,3,6,15,15,37.52228,126.882965,미운영,,2013-05-21,,,
서울특별시,영등포구,리틀남서울어린이집,가정,폐지,07215,서울특별시 영등포구 당산동5가 당산로42길 25 상아아파트 4동 113호(당산동5가),02-6166-1088,--,3,55,0,4,0,19,0,37.53252990561949,126.90043977914995,미운영,,2013-06-10,,,2017-02-28
서울특별시,영등포구,동양유정어린이집,가정,폐지,07201,서울특별시 영등포구 양평동6가 양평로30가길 15 동양아파트 103동101호,070-7804-0677,--,3,58,0,0,0,19,0,37.540923956938485,126.8889323650873,미운영,,2013-07-15,,,2016-02-29
서울특별시,영등포구,온새미로어린이집,가정,정상,07258,"서울특별시 영등포구 당산동3가 영신로 193 2동 106호(당산동3가,한양아파트)",02-6369-2013,02-6369-2013,4,55,0,5,6,19,13,37.52520423273088,126.90183914477664,미운영,,2013-08-19,,,
서울특별시,영등포구,온새미로어린이집,가정,폐지,07258,"서울특별시 영등포구 당산동3가 영신로 193 2동 106호(당산동3가,한양아파트)",02-6369-2013,--,4,55,0,0,0,19,0,,,미운영,,2013-08-19,,,2013-08-22
서울특별시,영등포구,키즈빈생태어린이집,민간,정상,07288,서울특별시 영등포구 문래동4가 선유로 26-1 고산빌딩1층,02-2635-1999,02-2635-1999,3,101,0,4,9,34,32,37.51629785504623,126.88866848743141,미운영,,2013-12-03,,,
서울특별시,영등포구,신길어린이집,민간,정상,07318,서울특별시 영등포구 영등포로67가길 9 ,02-842-0961,02-844-6074,4,183,1,9,12,63,61,37.51455301227866,126.91904831336778,운영,yisook1228@hanmail.net,2013-12-03,,,
서울특별시,영등포구,LG CNS 어린이집,직장,폐지,07320,서울특별시 영등포구 여의대로 24 ,02-2055-4066,02-2055-4067,3,116,1,14,0,35,0,37.52228806030355,126.92027978747246,미운영,,2013-12-12,,,2017-12-26
서울특별시,영등포구,한화여의도어린이집,직장,정상,07325,서울특별시 영등포구 여의대로 56 ,02-3772-8165,02-3772-8167,4,377,1,11,20,70,37,37.52403052913709,126.92288887819194,미운영,,2014-02-06,,,
서울특별시,영등포구,롯데아이사랑어린이집,직장,정상,07208,서울특별시 영등포구 양평동4가 선유로49길 30 ,070-4849-4493,--,3,62,0,7,8,21,13,37.53710203742501,126.89462070332462,미운영,,2014-03-03,,,
서울특별시,영등포구,메리츠어린이집,직장,폐지,07327,서울특별시 영등포구 국제금융로2길 11 ,02-6464-3310,02-6464-3323,4,197,0,8,0,49,0,37.52416973870149,126.92642731835491,미운영,http://www.puruni.com/meritzfire2,2014-04-04,,,2024-07-12
서울특별시,영등포구,사랑어린이집,가정,폐지,07350,"서울특별시 영등포구 여의대방로43라길 9 109동 102호(신길동,삼환아파트)",02-831-0465,--,3,84,0,5,0,19,0,37.50844791810116,126.91920872582236,미운영,,2014-04-10,,,2023-08-29
서울특별시,영등포구,은해어린이집,국공립,정상,07343,서울특별시 영등포구 국제금융로 110 여의도동,02-783-5512,--,4,96,0,10,11,36,35,37.51843283284174,126.93365889150578,미운영,,2016-05-01,,,
서울특별시,영등포구,영문어린이집,가정,정상,07287,서울특별시 영등포구 문래동4가 도림로143길 32 문래동삼환아파트 105동 102호,02-2671-0998,02-6265-0998,4,69,0,4,5,16,15,37.514024117328766,126.88908811251288,미운영,,2014-05-09,,,
서울특별시,영등포구,아이꿈어린이집,가정,정상,07435,"서울특별시 영등포구 대방천로 180 206동 101호(신길동,신길우성2차아파트)",02-844-5556,02-844-5556,4,60,0,4,8,19,16,37.49710069997331,126.91171661682854,미운영,,2014-06-16,,,
서울특별시,영등포구,국회제3어린이집,직장,정상,07233,서울특별시 영등포구 의사당대로 1 ,02-780-3420,02-788-3943,8,405,1,21,37,118,89,37.53291359592355,126.91640364151341,미운영,,2014-06-27,,,
서울특별시,영등포구,GS SHOP 도담도담 어린이집,직장,정상,07280,서울특별시 영등포구 문래동6가 선유로 75 ,02-3667-8935,02-3667-8937,4,253,2,10,19,80,45,37.52081042015416,126.88903281969736,미운영,www.puruni.com,2015-03-01,,,
서울특별시,영등포구,아트자이어린이집,민간,정상,07364,서울특별시 영등포구 도영로 66 아트자이아파트 단지내 복리시설,02-835-9751,02-835-9741,6,281,1,9,16,56,54,37.5103939541644,126.90017779874029,미운영,,2015-05-15,,,
서울특별시,영등포구,참포도나무어린이집,가정,폐지,07435,"서울특별시 영등포구 대방천로 180 204동 112호(신길동, 우성2차아파트)",02-831-1068,--,3,40,0,3,0,15,0,37.49710069997331,126.91171661682854,미운영,,2015-07-06,,,2022-06-03
서울특별시,영등포구,the KIDS 여의도1 어린이집,직장,폐지,07236,서울특별시 영등포구 의사당대로 18 현대카드/캐피탈 본사 3관 1층,02-3775-2527,--,6,324,1,43,0,90,0,37.52711555151208,126.9175414172313,미운영,,2015-08-28,,,2023-03-02
서울특별시,영등포구,한세예스24 어린이집,직장,정상,07238,서울특별시 영등포구 은행로 25 안원빌딩 2층,02-780-6889,02-783-6889,4,180,1,16,10,49,16,37.52867644662998,126.92137264070983,미운영,,2015-09-01,,,
서울특별시,영등포구,the KIDS 어린이집,직장,정상,07236,서울특별시 영등포구 의사당대로 18 1층,02-3775-4760,02-3775-4762,8,609,1,42,52,135,116,37.52713091037753,126.9176013595092,미운영,,2015-10-27,,,
서울특별시,영등포구,둥근마음어린이집,국공립,정상,07342,서울특별시 영등포구 여의대방로 372 ,02-2070-7500,02-2070-7800,5,225,2,13,13,84,59,37.51814285528773,126.93077240301886,미운영,,2016-01-01,,,
서울특별시,영등포구,프레비뉴어린이집,국공립,정상,07395,서울특별시 영등포구 가마산로 442 ,02-832-9919,02-832-9920,4,117,1,14,10,43,28,37.50459578767235,126.91002039187081,미운영,,2016-01-01,,,
서울특별시,영등포구,반디어린이집,국공립,정상,07201,서울특별시 영등포구 양평동6가 양평로30가길 15 동양아파트 101동 106호,02-2676-0677,--,4,145,0,5,10,20,19,37.542485810758144,126.89001003321874,미운영,,2016-01-01,,,
서울특별시,영등포구,선재어린이집,국공립,정상,07256,서울특별시 영등포구 당산동3가 선유동1로 80 ,02-2069-3018,02-2069-3019,9,750,2,22,32,154,115,37.528621700164635,126.89448782449928,미운영,,2016-01-01,,,
서울특별시,영등포구,동화어린이집,국공립,정상,07217,서울특별시 영등포구 당산동4가 당산로41가길 7 1층,02-2636-3412,02-2679-3412,4,374,1,6,10,70,43,37.531017276966786,126.89734453787156,미운영,,2016-01-01,,,
서울특별시,영등포구,자연과아이 어린이집,민간,폐지,07258,서울특별시 영등포구 당산동3가 양산로25길 12 ,02-2068-2914,--,5,150,1,6,0,53,0,37.524621539822206,126.89893707629002,미운영,,2016-01-13,,,2018-09-01
서울특별시,영등포구,순수 빅스맘 어린이집,민간,정상,07258,서울특별시 영등포구 당산동3가 국회대로 612 ,02-2068-7975,--,7,210,1,13,17,79,71,37.525795467774806,126.90205331426011,미운영,,2016-02-12,,,
서울특별시,영등포구,아이온어린이집,가정,폐지,07395,"서울특별시 영등포구 가마산로 442 104동 104호 (신길동,래미안영등포 프레비뉴아파트)",02-846-7771,--,4,57,0,4,0,20,0,37.50506040196341,126.90962173205078,미운영,,2016-02-23,,,2016-07-22
서울특별시,영등포구,해솔어린이집,국공립,정상,07381,서울특별시 영등포구 가마산로45길 13-1 ,02-832-4539,02-832-4537,4,107,0,8,13,30,27,37.50328196208405,126.89869442046206,미운영,,2016-03-01,,,
서울특별시,영등포구,효성ITX어린이집,직장,정상,07212,서울특별시 영등포구 양평동4가 선유동2로 57 ,02-2068-1920,0504-982-6875,3,106,1,8,13,37,21,37.53383179921987,126.89710987329413,미운영,https://www.puruni.com/hyosungitx,2016-02-25,,,
서울특별시,영등포구,KSD푸르니어린이집,직장,폐지,07330,서울특별시 영등포구 여의나루로4길 23 2층,02-785-7011,02-785-7012,4,181,1,14,0,49,29,37.52147079698764,126.92864829091351,미운영,www.puruni.com/ksd,2016-02-25,,,2022-03-07
서울특별시,영등포구,삼성키즈어린이집,가정,폐지,07395,"서울특별시 영등포구 가마산로 442 105동 104호(신길동, 래미안영등포 프레비뉴아파트)",070-8790-4532,--,4,60,0,4,0,20,0,37.50506040196341,126.90962173205078,미운영,,2016-03-14,,,2020-10-15
서울특별시,영등포구,아이행복어린이집,국공립,정상,07278,서울특별시 영등포구 양평동2가 선유서로 67 ,02-2678-1900,02-2678-1901,3,110,0,10,14,39,29,37.522092663051225,126.88445623057927,미운영,,2016-08-01,,,
서울특별시,영등포구,아이온어린이집,가정,폐지,07395,"서울특별시 영등포구 가마산로 442 104동 104호(신길동, 래미안영등포 프레비뉴아파트)",02-846-7771,02-846-7771,4,57,0,4,0,20,0,37.50500938274098,126.90888892408581,미운영,,2016-08-08,,,2024-10-14
서울특별시,영등포구,건이강이어린이집,직장,정상,07223,서울특별시 영등포구 당산동6가 당산로 238 ,02-2632-4100,02-2632-4109,3,99,1,10,13,35,26,37.53425080962651,126.90247219409795,미운영,http://www.puruni.com/nhissu,2016-08-22,,,
서울특별시,영등포구,영등포경찰서어린이집,직장,정상,07202,서울특별시 영등포구 양평동6가 양평로28라길 9 ,02-3667-0209,02-3667-0207,7,274,1,40,27,100,81,37.5418879646,126.8904589966,미운영,www.puruni.com/smpaydo,2016-08-29,,,
서울특별시,영등포구,남서울어린이집,국공립,정상,07225,서울특별시 영등포구 버드나루로14가길 35 ,02-2068-3466,02-2633-9460,10,291,1,15,21,110,62,37.5286765463446,126.90838498737282,미운영,,2016-09-01,,,
서울특별시,영등포구,양평 병아리 어린이집,민간,폐지,07272,서울특별시 영등포구 양평동1가 영등포로11길 18 ,02-6015-0579,02-6014-0579,5,87,0,8,0,32,0,37.5241253571,126.8882360282,미운영,cafe.naver.com/ypbbi,2016-09-19,,,2023-03-10
서울특별시,영등포구,문래자이어린이집,국공립,정상,07298,서울특별시 영등포구 문래동3가 당산로4길 12 관리동,02-2069-4512,02-2069-4513,3,84,0,6,12,27,26,37.5162769232,126.8973918801,미운영,,2016-09-20,,,
서울특별시,영등포구,도담어린이집,국공립,정상,07223,서울특별시 영등포구 당산동6가 당산로50길 29 ,02-2675-5657,--,5,179,1,9,11,57,23,37.5331104696,126.90508494,미운영,,2016-12-30,,,
서울특별시,영등포구,한국쓰리엠＆한국투자증권어린이집,직장,정상,07321,서울특별시 영등포구 의사당대로 82 하나금융투자빌딩 2층,02-761-6981,02-761-6989,4,159,0,8,11,49,25,37.5226819495,126.921854052,미운영,,2017-01-25,,,
서울특별시,영등포구,가람어린이집,국공립,정상,07374,"서울특별시 영등포구 도림로 365 101동 101호(도림동, 동아에코빌)",02-6203-2335,02-6203-2335,3,57,0,4,10,20,19,37.508889798,126.89867327,미운영,,2017-03-01,,,
서울특별시,영등포구,이든어린이집,국공립,정상,07209,서울특별시 영등포구 양평동4가 양평로17길 36 1동 110호,02-2676-5422,02-2636-5422,3,58,0,5,8,20,20,37.5344348536,126.8943710193,미운영,,2017-02-01,,,
서울특별시,영등포구,해군바다마을어린이집,직장,정상,07390,서울특별시 영등포구 가마산로 540 ,02-834-7004,02-834-7003,5,171,2,20,17,62,42,37.50286119416557,126.91592032058192,미운영,http://www.puruni.com/navy,2017-02-24,,,
서울특별시,영등포구,작은꼬마어린이집,국공립,정상,07435,서울특별시 영등포구 여의대방로5길 6 우창아파트 1동 108호,02-833-3044,--,3,46,0,5,8,17,17,37.4973999689,126.9118972016,미운영,,2017-03-01,,,
서울특별시,영등포구,아이꿈터어린이집,국공립,정상,07217,서울특별시 영등포구 당산동4가 당산로41길 23 당산현대아파트 103동 105호,02-2068-0011,02-2068-0011,3,48,0,4,8,18,18,37.5314959813,126.8966243298,미운영,,2017-03-01,,,
서울특별시,영등포구,즐거운어린이집,국공립,정상,07217,서울특별시 영등포구 당산동4가 당산로41길 23 101동 102호,02-6269-3939,02-6269-3939,3,53,0,4,7,20,19,37.53188554630201,126.89700506612924,미운영,,2017-03-01,,,
서울특별시,영등포구,키즈어린이집,국공립,정상,07416,서울특별시 영등포구 도림천로11길 3 ,02-846-2131,02-846-2111,4,133,0,12,11,49,36,37.4911129271,126.8965624104,미운영,,2017-04-01,,,
서울특별시,영등포구,꿈땅어린이집,가정,정상,07217,서울특별시 영등포구 당산동4가 당산로41길 23 106동 105호,02-2633-3998,--,3,62,0,4,5,20,10,37.53097515082343,126.89656508633061,미운영,,2017-05-01,,,
서울특별시,영등포구,래미안에스티움어린이집,국공립,정상,07390,서울특별시 영등포구 신풍로 77 래미안에스티움아파트 관리동,02-842-4111,02-843-4111,4,250,1,8,10,69,51,37.5004198781,126.9115453356,미운영,,2017-05-04,,,
서울특별시,영등포구,노아어린이집,가정,정상,07390,서울특별시 영등포구 신풍로 77 래미안에스티움 103동103호,02-832-5527,02-832-5527,3,61,0,4,7,20,20,37.50161569896814,126.91300959757203,미운영,http://cafe.daum.net/No-Ah,2017-05-25,,,
서울특별시,영등포구,영은어린이집,국공립,정상,07271,서울특별시 영등포구 양평동3가 양산로 61 ,02-2633-6966,02-2632-5715,4,191,0,7,17,45,43,37.5252874944,126.8899900369,미운영,,2017-09-01,,,
서울특별시,영등포구,하람어린이집,국공립,정상,07390,서울특별시 영등포구 신풍로 77 114동 106호,02-835-9922,02-835-9966,3,66,0,4,10,20,19,37.5004198781,126.9115453356,미운영,,2017-07-27,,,
서울특별시,영등포구,푸르름어린이집,국공립,정상,07405,서울특별시 영등포구 도림로81길 12-1 ,02-833-2446,02-833-2446,5,145,0,17,13,48,33,37.5014191105,126.9035101208,미운영,https://iseoul.seoul.go.kr/homepage/seoul/sisulInfo/adminIntro.do?stCode=11560000446,2017-07-27,,,
서울특별시,영등포구,래미안어린이집,가정,정상,07390,서울특별시 영등포구 신풍로 77 래미안에스티움 110동 101호,02-6449-2345,070-8240-2345,3,66,0,4,6,20,19,37.5004198781,126.9115453356,미운영,,2017-08-24,,,
서울특별시,영등포구,아크로타워어린이집,국공립,정상,07247,서울특별시 영등포구 영등포동7가 국회대로54길 11 아크로타워스퀘어아파트 관리동어린이집,02-2677-9207,--,5,276,1,8,14,74,46,37.5243334406,126.9080282944,미운영,,2017-09-12,,,
서울특별시,영등포구,NH투자증권어린이집,직장,정상,07325,서울특별시 영등포구 여의대로 66 2층,02-761-9433,02-761-9434,4,179,0,18,13,49,27,37.52461445957741,126.92370731477659,미운영,,2017-11-24,,,
서울특별시,영등포구,금나래어린이집,국공립,정상,07350,서울특별시 영등포구 도신로60길 17-12 ,02-844-2018,02-834-2018,5,144,0,15,16,45,36,37.5104366213,126.9181705375,미운영,,2017-12-11,,,
서울특별시,영등포구,다온어린이집,국공립,정상,07415,서울특별시 영등포구 도림로39길 11-13 ,02-831-0462,02-831-0461,6,209,1,19,16,79,75,37.4945442062,126.8968426434,미운영,,2017-12-11,,,
서울특별시,영등포구,이화어린이집,국공립,정상,07365,서울특별시 영등포구 도신로29길 28 대우푸르지오 2단지내,02-847-2243,--,4,72,0,5,10,27,27,37.5117544634,126.9023250258,미운영,,2018-01-18,,,
서울특별시,영등포구,드림타운어린이집,국공립,정상,07365,서울특별시 영등포구 도신로29길 28 대우푸르지오 1단지,02-6746-1004,--,3,72,0,4,9,27,25,37.5117544634,126.9023250258,미운영,,2018-01-18,,,
서울특별시,영등포구,푸르지오어린이집,국공립,정상,07226,서울특별시 영등포구 영등포동8가 영중로 154 당산푸르지오아파트 관리동,02-2677-3927,02-2677-3927,5,103,0,8,11,39,33,37.5311867152,126.9060648785,미운영,,2018-01-18,,,
서울특별시,영등포구,아르미어린이집,국공립,정상,07214,서울특별시 영등포구 당산동5가 당산로 214 ,02-2068-5515,02-2068-5515,4,74,0,4,10,28,27,37.5329320445,126.9028359571,미운영,,2018-01-18,,,
서울특별시,영등포구,선유어린이집,국공립,정상,07211,서울특별시 영등포구 양평동3가 선유로 207 ,02-2676-7111,--,3,77,0,6,10,29,29,37.5320088434,126.8937951748,미운영,,2018-01-18,,,
서울특별시,영등포구,신길삼성어린이집,국공립,정상,07362,서울특별시 영등포구 가마산로79길 7 삼성래미안아파트 관리동,02-841-8386,--,4,80,0,8,10,28,26,37.50503491592253,126.91598574117536,미운영,,2018-01-18,,,
서울특별시,영등포구,창의나라어린이집,국공립,정상,07356,서울특별시 영등포구 여의대방로47길 24-2 ,02-844-3234,02-844-3233,6,223,1,23,14,84,49,37.5088963987,126.921556261,미운영,,2018-01-29,,,
서울특별시,영등포구,한국교직원공제회어린이집,직장,정상,07328,서울특별시 영등포구 여의나루로 50 한국교직원공제회관 2층,02-786-1508,02-786-1509,4,127,1,20,8,33,11,37.5218050224,126.9256513576,미운영,https://www.puruni.com/ktcu,2018-03-28,,,
서울특별시,영등포구,아너스빌어린이집,국공립,정상,07437,서울특별시 영등포구 여의대방로 25 경남아너스빌아파트 관리동,02-849-4279,02-849-4270,3,93,0,7,10,28,27,37.4947127568,126.9089783295,미운영,,2018-02-08,,,
서울특별시,영등포구,모아미래도어린이집,국공립,정상,07285,서울특별시 영등포구 문래동5가 선유로9나길 5 관리동 1층,02-2637-2335,02-2637-2333,3,48,0,5,8,18,18,37.5172726911,126.8867214504,미운영,,2018-04-30,,,
서울특별시,영등포구,거성어린이집,국공립,정상,07210,서울특별시 영등포구 양평동3가 선유로43가길 24 관리동 1층,02-2672-9681,--,3,52,0,3,9,17,17,37.5314269827,126.8920129607,미운영,,2018-05-11,,,
서울특별시,영등포구,자연과아이어린이집,국공립,정상,07258,서울특별시 영등포구 당산동3가 양산로25길 12 ,02-2068-2914,02-2677-2914,4,127,1,7,13,48,32,37.5246215398,126.8989370763,미운영,,2018-06-07,,,
서울특별시,영등포구,문래힐스테이트어린이집,국공립,정상,07295,서울특별시 영등포구 문래동3가 문래로 82 문래동 힐스테이트 관리동,02-2633-2233,02-2633-2235,4,121,0,13,15,45,42,37.5191940837,126.8910351489,미운영,,2018-12-12,,,
서울특별시,영등포구,늘해랑어린이집,국공립,정상,07208,서울특별시 영등포구 양평동4가 선유로47길 30 (양평동),02-2069-2780,02-2069-2781,6,225,2,14,18,85,83,37.5363197924,126.8944226699,미운영,,2018-12-21,,,
서울특별시,영등포구,문래동제2어린이집,국공립,정상,07285,서울특별시 영등포구 문래동5가 선유로5길 8 ,02-2069-4911,02-2069-0911,6,235,1,19,18,85,79,37.51640668306202,126.88751342856407,미운영,,2019-01-15,,,
서울특별시,영등포구,나이스 가온 어린이집,직장,정상,07238,서울특별시 영등포구 국회대로74길 19 1~2층,02-780-9370,--,4,196,1,25,11,62,25,37.5291163217201,126.9189822330403,미운영,,2019-02-28,,,
서울특별시,영등포구,아이숲어린이집,국공립,정상,07295,서울특별시 영등포구 문래동3가 문래로 94-7 101동 107호(문래건영아파트),02-6104-7912,--,3,46,0,5,8,16,16,37.51761021017889,126.89310521502723,미운영,,2019-01-28,,,
서울특별시,영등포구,아이존어린이집,국공립,폐지,07264,서울특별시 영등포구 당산동2가 당산로 95 105동 103호(현대아파트),02-833-1446,--,3,58,0,4,0,20,0,37.5238645625056,126.89465742522928,미운영,,2019-01-28,,,2022-07-20
서울특별시,영등포구,자연어린이집,국공립,정상,07283,서울특별시 영등포구 문래동6가 문래로4길 14 101동 104호(현대아파트),02-2679-0671,--,4,64,0,5,11,20,20,37.5197178439263,126.88285359835161,미운영,,2019-01-28,,,
서울특별시,영등포구,큰나무어린이집,국공립,정상,07295,서울특별시 영등포구 문래동3가 문래로20길 14 2동 103호(문래공원한신아파트),02-6335-2903,02-6335-2903,3,54,0,4,9,19,19,37.517339971017584,126.8931734699443,미운영,,2019-01-28,,,
서울특별시,영등포구,별이달이어린이집,국공립,정상,07423,서울특별시 영등포구 대림로22길 29 102동 103호(갑을명가아파트),02-846-6549,070-8210-6549,3,53,0,5,9,19,17,37.49590977344244,126.90389603893587,미운영,,2019-01-28,,,
서울특별시,영등포구,여의도 하나금융그룹 직장어린이집,직장,정상,07327,서울특별시 영등포구 여의나루로 53-1 3층,02-780-3220,--,5,220,3,32,23,70,53,37.52297813694364,126.9256660309019,미운영,https://www.puruni.com/hanayu,2019-04-09,,,
서울특별시,영등포구,신길햇살아이파크어린이집,국공립,정상,07394,서울특별시 영등포구 가마산로 426 ,02-849-9501,02-849-9502,5,157,2,13,15,57,40,37.50465084078794,126.90552190861179,미운영,,2019-04-03,,,
서울특별시,영등포구,늘봄보라매SK뷰어린이집,국공립,정상,07391,서울특별시 영등포구 여의대방로35가길 19 ,02-2135-7941,02-832-7941,5,182,2,13,16,68,68,37.50352258203092,126.91791287656861,미운영,,2020-02-07,,,
서울특별시,영등포구,서비스에이스 하람어린이집,직장,정상,07298,서울특별시 영등포구 문래로28길 25 에스타워 3층(문래동3가),02-6256-0190,02-6256-0193,6,182,0,8,14,49,35,37.51576899748815,126.89977021844858,미운영,,2020-03-16,,,
서울특별시,영등포구,신길센트럴자이 솔빛 어린이집,국공립,정상,07397,서울특별시 영등포구 신길로29길 17 ,02-848-1531,02-848-1532,6,242,1,12,19,75,66,37.50299027294372,126.90778305559252,미운영,,2020-04-06,,,
서울특별시,영등포구,아이키움문래어린이집,민간,정상,07282,서울특별시 영등포구 선유로9길 30 102동 1층(문래동6가),02-6397-7955,--,7,280,1,15,14,75,58,37.51816857427777,126.8856160745003,미운영,,2020-06-19,,,
서울특별시,영등포구,영등포든든어린이집,국공립,정상,07412,서울특별시 영등포구 대림로35가길 9 ,02-842-2021,02-842-2022,5,185,1,29,16,65,48,37.49808746253722,126.8979364066676,미운영,http://cafe.daum.net/ydpdd,2020-05-28,,,
서울특별시,영등포구,당산2동은솔어린이집,국공립,정상,07215,서울특별시 영등포구 당산로42길 23 ,02-2636-5630,02-2635-5630,12,465,2,32,24,150,136,37.53015741513897,126.90175063111649,미운영,,2020-07-03,,,
서울특별시,영등포구,당산2동센트럴아이파크별하어린이집,국공립,정상,07215,서울특별시 영등포구 영신로 247 107동 관리동,02-2135-2653,--,5,98,0,20,13,30,30,37.52985378042614,126.90229690399766,미운영,,2020-08-04,,,
서울특별시,영등포구,새솔아델포레어린이집,국공립,정상,07440,서울특별시 영등포구 신길로 29 ,02-6334-0202,02-6334-0203,5,148,2,14,16,51,48,37.4943580052568,126.9069794865993,미운영,,2020-09-01,,,
서울특별시,영등포구,신길파크자이솔숲어린이집,국공립,정상,07389,서울특별시 영등포구 신길로28길 25 ,02-6269-1900,02-6269-1906,3,77,0,15,12,29,29,37.50256734047092,126.91294770575835,미운영,,2020-12-04,,,
서울특별시,영등포구,신길힐스테이트나래어린이집,국공립,정상,07388,서울특별시 영등포구 신길로28길 9 ,02-6672-8330,02-6672-8334,5,198,2,13,19,65,45,37.504200634223174,126.9117286145243,미운영,,2020-10-23,,,
서울특별시,영등포구,KB여의도어린이집,직장,정상,07331,서울특별시 영등포구 국제금융로8길 26 1층,02-6332-5051,02-6332-5052,4,160,1,16,14,49,41,37.52084865209161,126.92790228437903,미운영,http://www.puruni.com/kbyeouido,2021-02-24,,,
서울특별시,영등포구,라온어린이집,국공립,정상,07440,서울특별시 영등포구 신길로 29 ,02-842-9376,--,4,97,0,16,15,35,35,37.49444761448812,126.90635742880879,미운영,,2021-03-24,,,
서울특별시,영등포구,코스콤푸르니어린이집,직장,정상,07330,서울특별시 영등포구 여의나루로4길 21 2층,02-761-9881,02-761-9882,7,322,3,18,19,80,36,37.5216085,126.9283821,미운영,www.puruni.com,2022-02-23,,,
서울특별시,영등포구,신길더샵해늘어린이집,국공립,정상,07361,서울특별시 영등포구 가마산로79길 37 관리동,02-6205-0707,02-6205-0708,4,127,0,12,13,45,33,37.5071122,126.9168564,미운영,,2022-07-01,,,
서울특별시,영등포구,LG 에너지솔루션 지정 어린이집,직장,정상,07335,서울특별시 영등포구 여의대로 108 파크원빌딩 3층,02-2118-0700,02-2118-0702,9,375,1,54,49,108,91,37.52659220221173,126.92734807790963,미운영,,2022-08-24,,,
서울특별시,영등포구,삼환어린이집,국공립,정상,07227,서울특별시 영등포구 영중로 145 영등포삼환아파트 104동 101호,02-2679-5967,--,3,60,0,4,8,20,20,37.52965303803424,126.9047238972906,미운영,,2022-10-01,,,
서울특별시,영등포구,아토어린이집,국공립,정상,07264,서울특별시 영등포구 당산로 83 ,02-6747-7222,--,6,242,1,24,17,88,51,37.52210574803719,126.89509824944436,미운영,,2022-12-15,,,
서울특별시,영등포구,위차일드어린이집,직장,정상,07246,"서울특별시 영등포구 국회대로54길 10 13동 204, 205호",02-2675-9985,02-2675-9985,3,80,0,8,10,30,7,37.523072318531746,126.90609541527263,미운영,,2023-01-09,,,
서울특별시,영등포구,쌍용누리어린이집,국공립,정상,07372,서울특별시 영등포구 도영로7길 15 관리동,02-835-1006,02-835-1007,3,84,1,11,9,30,22,37.50953375615528,126.89426473841901,미운영,,2023-11-30,,,
서울특별시,영등포구,현대키즈맘어린이집,국공립,정상,07377,서울특별시 영등포구 도신로4길 14 현대아파트 101동 109호,02-848-1007,--,3,84,0,4,8,19,16,37.502209121018126,126.89486315143803,미운영,,2024-03-01,,,
서울특별시,영등포구,행복한 영이어린이집,국공립,정상,07249,서울특별시 영등포구 양산로 232 1층,02-2138-0741,--,6,204,1,14,15,67,38,37.566470,126.977963,미운영,,2024-06-27,,,