시도,시군구,어린이집명,어린이집유형구분,운영현황,우편번호,주소,어린이집전화번호,어린이집팩스번호,보육실수,보육실면적,놀이터수,CCTV설치수,보육교직원수,정원수,현원수,위도,경도,통학차량운영여부,홈페이지주소,인가일자,휴지시작일자,휴지종료일자,폐지일자
서울특별시,동대문구,이문어린이집,국공립,정상,02406,서울특별시 동대문구 신이문로 9 (이문동),02-969-2052,02-969-2053,4,183,1,9,12,62,49,37.60358084,127.0630131,미운영,imun3.kidis.co.kr,1991-02-01,,,
서울특별시,동대문구,꿈마루어린이집,국공립,정상,02492,서울특별시 동대문구 전농로36길 29-3 꿈마루어린이집,02-2213-7974,02-2213-7974,7,540,2,11,18,122,75,37.58550218934108,127.05404161683877,미운영,cafe.naver.com/dreamsky1,1984-02-25,,,
서울특별시,동대문구,메꽃어린이집,국공립,정상,02637,서울특별시 동대문구 답십리로 320-1 ,02-2212-6096,070-7580-6096,6,404,1,16,13,94,53,37.57167207,127.0761235,미운영,,1983-06-27,,,
서울특별시,동대문구,한신어린이집,민간,정상,02463,서울특별시 동대문구 제기로 131 청량한신2차아파트 단지동 (청량리동),02-957-0656,02-957-0657,6,298,2,8,13,88,41,37.58799269,127.0492407,운영,hansinkids.com,1999-01-12,,,
서울특별시,동대문구,꿈아이어린이집,민간,폐지,02569,서울특별시 동대문구 정릉천동로 108-1 ,02-965-2109,02-965-2107,4,133,0,5,0,36,0,37.58185715,127.0358649,미운영,club.cyworld.com/dreami2004,2003-12-30,,,2019-03-01
서울특별시,동대문구,푸른솔몬테소리어린이집,민간,폐지,130766,서울 동대문구 이문3동 현대아파트 단지내 푸른솔몬테소리어린이집 ,02-963-5004,--,0,1,0,0,0,39,0,,,,,2002-10-01,,,2010-02-25
서울특별시,동대문구,다솔어린이집,민간,정상,02428,서울특별시 동대문구 휘경로 45 (휘경동),02-965-0471,02-967-3833,5,297,1,8,9,74,35,37.59470651,127.064943,운영,,1995-05-20,,,
서울특별시,동대문구,단비어린이집,국공립,정상,02594,서울특별시 동대문구 답십리로26길 12 (전농동),02-2212-2207,02-2212-2208,4,191,1,16,12,64,41,37.5751723737,127.0475815691,미운영,cafe.daum.net/danbihome,2002-09-01,,,
서울특별시,동대문구,보인푸른숲어린이집,민간,폐지,02404,서울특별시 동대문구 천장산로 8 (이문동),02-963-4812,--,4,169,1,6,0,39,0,37.59802536,127.0601067,미운영,,2002-11-29,,,2020-09-26
서울특별시,동대문구,이화어린이집,국공립,폐지,02639,서울특별시 동대문구 장한로26다길 38 (장안동),02-2212-6717,02-2212-6782,6,247,1,12,0,49,0,37.5700707565,127.072703189,미운영,www.syword.com/ewha2212,2004-06-24,,,2019-02-28
서울특별시,동대문구,예지안어린이집,민간,폐지,02615,서울특별시 동대문구 답십리로48길 58 (답십리동),02-0000-0000,02--,5,172,0,9,0,56,0,37.57025774,127.0575816,운영,,1999-02-27,,,2018-04-11
서울특별시,동대문구,한일어린이집,민간,정상,02426,서울특별시 동대문구 외대역동로 118 (이문동),02-969-2558,02-961-8537,8,447,1,12,8,170,37,37.59888105,127.0666539,운영,,2001-12-03,,,
서울특별시,동대문구,도담어린이집,국공립,정상,02507,서울특별시 동대문구 사가정로17길 21 구립 도담 어린이집,02-2244-8703,02-2241-9325,6,829,1,20,20,99,74,37.5787544,127.0605018,미운영,,1983-07-13,,,
서울특별시,동대문구,휘경어린이집,국공립,정상,02496,서울특별시 동대문구 망우로 46 ,02-2243-2831,02-2245-6962,5,221,1,12,14,75,57,37.5913124,127.0613223,미운영,,1987-02-01,,,
서울특별시,동대문구,조앤아이어린이집,가정,정상,02524,"서울특별시 동대문구 장안벚꽃로 167 215동 102호(장안동, 장안아파트2단지)",02-2246-2789,02-2246-2789,3,60,0,4,8,20,19,37.57389111,127.0752889,미운영,,2005-03-11,,,
서울특별시,동대문구,유마어린이집,국공립,정상,02464,서울특별시 동대문구 제기로31길 10-3 (청량사내) (청량리동),02-965-4121,02-959-4131,4,129,0,13,9,48,30,37.58810833,127.0472679,미운영,,2000-12-09,,,
서울특별시,동대문구,동화어린이집,민간,정상,02497,서울특별시 동대문구 망우로12가길 20 (휘경동),02-2244-9118,02-2247-2386,7,212,2,11,24,80,80,37.58868271,127.0602457,운영,http//cafe.naver.com/dh9118,1996-12-16,,,
서울특별시,동대문구,신현대어린이집,국공립,폐지,02461,서울특별시 동대문구 이문로1길 21 신현대아파트 관리소동 1층 (회기동),02-959-7989,02-959-7989,3,58,0,4,0,20,0,37.58955783,127.052047,미운영,,2002-12-17,,,2024-09-01
서울특별시,동대문구,평화어린이집,민간,폐지,130866,서울 동대문구 청량리1동 30번지 왕빌딩 2층 ,02-957-3770,02-957-3770,3,101,0,0,0,38,0,,,,,2000-04-19,,,2010-01-04
서울특별시,동대문구,짐랜드어린이집,민간,폐지,02451,서울특별시 동대문구 이문로25길 17 (이문동),02-959-4422,02-966-2281,6,261,1,0,0,71,0,37.59535226,127.0592367,운영,,1994-12-21,,,2020-12-09
서울특별시,동대문구,글샘어린이집,민간,정상,02564,서울특별시 동대문구 천호대로35길 39 (용두동),02-969-0073,02-969-0071,8,156,2,10,13,59,39,37.57506995,127.0416592,운영,,2005-01-29,,,
서울특별시,동대문구,이문현대어린이집,민간,폐지,02422,서울특별시 동대문구 한천로58길 107 이문현대아파트 단지동 (이문동),02-959-1153,02-6451-1154,6,202,1,8,0,72,0,37.60119089,127.0700259,운영,,2000-05-30,,,2018-03-01
서울특별시,동대문구,무지개어린이집,법인·단체등,폐지,02402,서울특별시 동대문구 이문로35길 32 (이문동),02-964-0450,02-966-1477,4,160,1,0,0,59,0,37.60088158,127.0606642,운영,,1997-05-01,,,2014-02-28
서울특별시,동대문구,새연세어린이집,민간,폐지,02496,서울특별시 동대문구 망우로12길 19 (휘경동),02-2215-1415,02-2245-2103,6,251,2,8,0,62,0,37.58835018,127.05877,미운영,,1997-11-22,,,2017-03-14
서울특별시,동대문구,샘어린이집,민간,폐지,02569,서울특별시 동대문구 약령서길 81 (제기동),02-963-9360,02-963-9361,3,113,0,3,0,26,0,37.58185685,127.03638,미운영,www.cyworld.com/sam-child,2000-03-18,,,2020-08-01
서울특별시,동대문구,모아어린이집,가정,폐지,02514,"서울특별시 동대문구 사가정로23가길 35 103호, (장안동, 방원예뜨랑아파트)",02-2248-9151,02-2248-9151,3,62,0,4,0,20,0,37.57855202,127.0699906,미운영,,1997-02-04,,,2020-10-14
서울특별시,동대문구,용두희망어린이집,국공립,정상,02578,서울특별시 동대문구 무학로49길 75 (용두동),02-923-0836,02-923-0837,5,230,1,11,13,79,59,37.57969079,127.0267201,미운영,ydh0836@naver.com,2004-03-01,,,
서울특별시,동대문구,해찬어린이집,민간,폐지,02512,서울특별시 동대문구 한천로 248 휘경주공2차아파트 단지동 (휘경동),02-6451-7942,02-6451-7974,3,154,0,4,0,36,0,37.583237,127.0719,운영,,2001-12-20,,,2024-02-29
서울특별시,동대문구,해솔어린이집,민간,폐지,02512,서울특별시 동대문구 한천로 248 휘경주공아파트 1단지 단지동 (휘경동),02-6452-7942,02-2212-4300,3,114,0,4,0,36,0,37.583237,127.0719,운영,,2001-12-20,,,2018-03-01
서울특별시,동대문구,햇살어린이집,국공립,정상,02590,서울특별시 동대문구 청계천로 547 (용두동 696-9),02-962-5519,02-960-5519,6,280,1,12,13,99,62,37.57282049705496,127.03697997812796,미운영,,1982-09-01,,,
서울특별시,동대문구,배봉어린이집,국공립,정상,02516,서울특별시 동대문구 사가정로25길 51 (장안동),02-2217-2070,02-2217-2060,5,513,1,8,14,99,75,37.58114475,127.0706184,미운영,http://cafe.daum.net/baebongedu,1994-03-04,,,
서울특별시,동대문구,천응방과후어린이집,민간,정상,02487,서울특별시 동대문구 제기로 128-6 ,02-965-2423,02-6402-7449,4,106,0,7,6,40,24,37.58639757,127.0469715,미운영,,2002-07-02,,,
서울특별시,동대문구,사랑어린이집,민간,정상,02467,서울특별시 동대문구 고산자로 534 제기한신아파트 단지동 (제기동),02-964-1442,02-964-1443,7,367,3,8,12,81,46,37.58872123,127.0390668,미운영,,2000-10-05,,,
서울특별시,동대문구,다솜어린이집,민간,폐지,02561,서울특별시 동대문구 천호대로45나길 48 (용두동),02-960-1794,02-960-1794,5,153,0,4,0,39,0,37.57676666,127.0416647,미운영,http://dasom.kidis.kr/,1996-04-03,,,2023-03-01
서울특별시,동대문구,전농방과후어린이집,민간,정상,02548,서울특별시 동대문구 서울시립대로12길 99 (전농동)355-1,02-2215-8514,02-2215-8518,3,206,0,5,8,40,24,37.57455721,127.0468836,미운영,,2000-06-19,,,
서울특별시,동대문구,열린방과후어린이집,국공립,정상,02508,서울특별시 동대문구 전농로16길 59 열린방과후교실,02-2248-0421,02-2248-0421,2,52,0,2,7,20,18,37.5782405,127.0605762,미운영,http://cafe.daum.net/y005,2001-08-08,,,
서울특별시,동대문구,어린왕자어린이집,민간,정상,02412,서울특별시 동대문구 신이문로6길 10 (이문동),02-959-5977,--,7,266,2,15,22,99,84,37.60245440759991,127.06300472365934,운영,,1999-09-28,,,
서울특별시,동대문구,다솔창의어린이집,민간,정상,02428,서울특별시 동대문구 휘경로 45 ,02-960-4281,02-967-3833,3,117,1,4,4,23,8,37.59335698,127.0648568,미운영,,1997-09-24,,,
서울특별시,동대문구,영신어린이집,법인·단체등,정상,02558,서울특별시 동대문구 답십리로 51 (전농동),02-2213-0304,02-2213-0602,5,217,0,8,15,49,28,37.57658691,127.0470649,미운영,보육포털,1997-06-10,,,
서울특별시,동대문구,늘푸른어린이집,민간,정상,02593,서울특별시 동대문구 서울시립대로 14 청계한신휴플러스아파트 관리동 (답십리동),02-2212-8439,02-2248-2689,5,177,1,8,10,67,37,37.57246644600364,127.04591355681063,미운영,,1996-12-13,,,
서울특별시,동대문구,성은어린이집,민간,정상,02423,서울특별시 동대문구 한천로 434 (이문동),02-967-7178,02-966-7179,6,255,1,11,8,49,26,37.5991872,127.0678822,운영,http://enterkids.com/sungeun,1999-08-07,,,
서울특별시,동대문구,늘사랑어린이집,국공립,정상,02488,서울특별시 동대문구 제기로38길 50 동성빌딩  2층,02-965-6096,02--,2,54,0,5,7,20,14,37.58419445,127.049084,미운영,,1992-06-15,,,
서울특별시,동대문구,은빛어린이집,민간,폐지,02410,서울특별시 동대문구 신이문로12길 54 (이문동),02-962-9107,02-962-9108,3,154,0,4,0,42,0,37.60162172,127.0665042,미운영,,1997-10-07,,,2019-03-01
서울특별시,동대문구,아이나무킨더어린이집,민간,정상,02477,서울특별시 동대문구 약령시로 25 안암골벽산아파트 단지내 (제기동),02-929-1697,02-929-1698,6,443,2,14,5,31,3,37.58357773,127.0314135,미운영,,2003-12-02,,,
서울특별시,동대문구,몬테소리어린이집,가정,폐지,02532,"서울특별시 동대문구 사가정로 148 113동 104호 (전농동, SK아파트)",02-2216-2543,02-2216-2543,3,43,0,4,0,16,0,37.57651405,127.0604564,미운영,skmontesori@hanmail.net,2000-08-28,,,2019-03-13
서울특별시,동대문구,함께나누는어린이집,민간,폐지,130864,서울 동대문구 제기2동 972번지 백합빌딩 2층 ,02-968-1235,02-968-1235,4,265,0,0,0,33,0,,,,,1999-05-03,,,2011-04-13
서울특별시,동대문구,새싹어린이집,국공립,정상,02512,"서울특별시 동대문구 한천로 248 101동 102호(휘경동, 주공아파트)",02-2248-2467,--,3,53,0,4,8,20,20,37.583237,127.0719,미운영,,2015-09-01,,,
서울특별시,동대문구,솜송이어린이집,가정,폐지,02441,서울특별시 동대문구 이문로16길 37 (이문동),02-967-1971,02-969-4327,3,59,0,3,0,20,0,37.59423642,127.0606628,미운영,키즈노트,2001-03-03,,,2023-01-19
서울특별시,동대문구,혜진어린이집,민간,폐지,02435,서울특별시 동대문구 망우로 129-1 ,02-957-6111,02-957-6111,7,162,1,11,0,60,0,37.59194944,127.0671199,운영,,1992-01-13,,,2017-11-02
서울특별시,동대문구,내마음의어린이집,민간,폐지,02448,서울특별시 동대문구 천장산로9길 62 (이문동),02-3295-4733,02-3295-4733,2,162,1,5,0,33,0,37.59891563,127.0541343,미운영,http://nemazip.da.to,2000-10-17,,,2017-03-30
서울특별시,동대문구,꿈나무어린이집,가정,폐지,02536,"서울특별시 동대문구 전농로10길 10 105동 105호(답십리동, 청솔우성아파트)",02-2242-0506,02-2242-0506,4,53,0,5,0,20,0,37.57464194,127.060035,미운영,,2006-08-29,,,2020-02-29
서울특별시,동대문구,예일어린이집,국공립,폐지,02407,"서울특별시 동대문구 한천로63길 10 106동 104호(이문동, 이문e편한세상아파트)",02-965-3007,0504-272-1348,3,67,0,4,0,20,0,37.60448057,127.0650075,미운영,http://cafe.naver.com/1004yeilchildren,2016-03-01,,,2024-07-01
서울특별시,동대문구,중앙삐아제어린이집,민간,정상,02409,서울특별시 동대문구 한천로63길 5-8 ,02-966-9614,02-963-9712,5,276,2,8,15,60,44,37.60401065,127.0667677,운영,,1996-09-05,,,
서울특별시,동대문구,키즈브라운어린이집,가정,정상,02575,"서울특별시 동대문구 왕산로23길 89 103동 105호(제기동, 이수브라운 스톤아파트)",02-928-2008,--,3,63,0,4,7,20,12,37.58232117,127.0342104,미운영,,2005-05-01,,,
서울특별시,동대문구,영신꾸러기어린이집,가정,폐지,02625,"서울특별시 동대문구 답십리로68길 89 제1층 101호(장안동, 청풍연립)",02-2214-0174,02-2214-0174,3,73,0,0,0,17,0,37.568646508945044,127.0677801598109,미운영,,2006-06-13,,,2015-12-02
서울특별시,동대문구,효림어린이집,가정,정상,02512,"서울특별시 동대문구 한천로 248 111동 105호(휘경동, 주공아파트)",02-6238-0460,02-6238-0460,4,54,0,4,6,20,9,37.583237,127.0719,미운영,,2002-01-28,,,
서울특별시,동대문구,애일선교어린이집,민간,폐지,02584,서울특별시 동대문구 왕산로16길 28 (용두동),02-921-3825,02-928-5489,5,271,0,5,0,39,0,37.57660266,127.0309582,미운영,,1996-03-19,,,2024-11-29
서울특별시,동대문구,아이꿈어린이집,가정,정상,02609,"서울특별시 동대문구 답십리로 210-30 2동 114호(답십리동, 한신아파트)",02-6495-0058,02-6493-0058,3,54,0,4,6,20,16,37.57086836,127.0625253,미운영,,2004-12-22,,,
서울특별시,동대문구,주공신나는어린이집,가정,폐지,02512,"서울특별시 동대문구 한천로 248 112동 101호(휘경동, 주공아파트)",02-6212-7949,02-6212-7949,3,57,4,4,0,20,0,37.583237,127.0719,미운영,,2005-01-05,,,2022-03-02
서울특별시,동대문구,빛초롱어린이집,민간,정상,02532,서울특별시 동대문구 사가정로 168 SK아파트 제2관리소 단지동 (전농동),02-2244-5550,02-2244-5550,4,135,0,5,2,30,8,37.57651405,127.0604564,미운영,,2001-03-15,,,
서울특별시,동대문구,새햇살어린이집,가정,폐지,02469,서울특별시 동대문구 제기로21길 47-8 ,02-967-3342,--,4,55,0,4,0,20,0,37.58891289,127.0412508,미운영,,1997-12-19,,,2017-06-01
서울특별시,동대문구,다원어린이집,가정,폐지,02463,"서울특별시 동대문구 제기로 131 106동 110호(청량리동, 한신아파트)",02-3295-0782,02-3295-0782,3,86,1,4,0,20,0,37.58799269,127.0492407,미운영,club.cyworld.com/dream1888,2008-09-25,,,2020-02-29
서울특별시,동대문구,보림어린이집,국공립,정상,02426,서울특별시 동대문구 외대역동로 114-1 ,02-957-3805,02-957-0455,4,110,0,11,15,41,40,37.59768416,127.0654764,미운영,http://cafe.daum.net/borimchildren,2005-01-03,,,
서울특별시,동대문구,영재몬테소리어린이집,가정,폐지,02467,"서울특별시 동대문구 고산자로 534 102동 101호(제기동, 한신아파트)",02-959-5031,02-959-5031,3,59,0,4,0,18,0,37.58872123,127.0390668,미운영,,2008-08-14,,,2022-02-04
서울특별시,동대문구,푸른하늘어린이집,국공립,정상,02625,서울특별시 동대문구 답십리로66길 75-4 (장안동 393-2),02-2212-1036,02-2215-5661,7,520,1,13,21,157,108,37.56892726,127.0669282,미운영,,1981-02-24,,,
서울특별시,동대문구,회기하나어린이집,국공립,정상,02453,서울특별시 동대문구 회기로21가길 12 (회기동 58-1),02-969-6691,02-959-3801,5,165,2,23,12,61,34,37.59067132,127.0544934,미운영,cafe.daum.net/heogi,1991-12-27,,,
서울특별시,동대문구,우성그린어린이집,가정,정상,02535,"서울특별시 동대문구 답십리로59길 33 102동 101호(답십리동, 우성그린아파트)",02-6213-0623,02-6213-0124,3,54,0,4,8,20,14,37.57479158,127.0659471,미운영,,2005-01-14,,,
서울특별시,동대문구,예나어린이집,국공립,정상,02479,서울특별시 동대문구 경동시장로23길 14 (제기동),02-967-2229,02-965-7218,7,478,1,16,18,99,62,37.58572845,127.0394563,미운영,cafe.naver.com/yena2229,2001-10-01,,,
서울특별시,동대문구,숲속에어린이집,민간,폐지,02525,서울특별시 동대문구 사가정로 218 동대문구 사가정로 218번지 (장안동) 2층,02-2249-7999,02-2247-6999,4,154,0,0,0,36,0,37.57849354,127.0690879,미운영,so103906@daum.net,1998-06-02,,,2015-03-05
서울특별시,동대문구,동대문어린이집,국공립,정상,02601,서울특별시 동대문구 사가정로2길 13 (답십리동),02-2213-7994,02-2245-5027,6,395,1,16,17,88,58,37.5711920739042,127.0511832346515,미운영,cafe.daum.net/lovedongdemoon,1981-03-02,,,
서울특별시,동대문구,동대문구청직장어린이집,직장,정상,02565,서울특별시 동대문구 고산자로28길 13 (용두동),02-6929-2601,02-965-8596,6,170,0,11,14,49,40,37.57439451111949,127.03989678486758,미운영,https://iseoul.seoul.go.kr/homepage/main.do?stCode=11230000117,2001-03-01,,,
서울특별시,동대문구,한길어린이집,민간,폐지,02639,서울특별시 동대문구 장한로18길 9 (장안동),02-2212-2007,02-2249-1466,5,126,1,7,0,45,0,37.56850983,127.0696366,운영,,1998-12-15,,,2018-03-14
서울특별시,동대문구,솔솔어린이집,민간,폐지,02513,서울특별시 동대문구 장안벚꽃로5길 19 휘경현대베스트빌 관리동 2층 (휘경동),02-2249-4924,02-2249-4924,4,137,1,5,0,32,0,37.581594,127.074126,운영,,2001-01-04,,,2018-04-01
서울특별시,동대문구,중앙어린이집,가정,정상,02532,"서울특별시 동대문구 사가정로 148 111동 101호(전농동, SK아파트)",02-2247-5043,--,3,54,0,4,7,20,17,37.57651405,127.0604564,미운영,http://cafe.naver.com/wjsshdwnddkd,2004-10-04,,,
서울특별시,동대문구,오르다어린이집,민간,폐지,02606,서울특별시 동대문구 답십리로48길 24 (답십리동),02-2246-0532,02-2246-0532,5,143,0,8,0,39,0,37.57178709,127.057731,운영,다음 지혜로운오르다어린이,1996-08-21,,,2024-03-22
서울특별시,동대문구,칼비테영재어린이집,국공립,정상,02524,"서울특별시 동대문구 장안벚꽃로 167 214동 102호(장안동, 장안아파트2단지)",02-2215-0010,02-2215-0010,3,54,5,4,8,20,20,37.57389111,127.0752889,미운영,kbt6843@hanmail.net,2015-12-01,,,
서울특별시,동대문구,두산오르다어린이집,민간,정상,02607,서울특별시 동대문구 답십리로56길 8 (답십리동),02-2243-0532,070-4324-0532,3,148,0,4,9,35,24,37.57241247,127.0592061,운영,다음 까페 지혜로운 두산오르다 어린이,2006-01-26,,,
서울특별시,동대문구,꽃별어린이집,민간,폐지,130883,서울특별시 동대문구 답십리로48길 82 (답십리동),02-2245-3800,02-2245-3800,5,194,0,0,0,39,0,37.56910669,127.0575293,운영,,1997-10-01,,,2013-08-07
서울특별시,동대문구,성모몬테소리어린이집,민간,폐지,02526,서울특별시 동대문구 장한로33길 34-7 (장안동),02-2249-5795,02-2249-5796,4,137,1,5,0,32,0,37.57712995,127.0706491,운영,,1997-09-26,,,2020-09-01
서울특별시,동대문구,마리아어린이집,민간,폐지,02526,서울특별시 동대문구 답십리로65길 98 (장안동),02-2249-5796,02-2249-5796,4,128,1,5,0,33,0,37.57712995,127.0706491,미운영,,2002-04-09,,,2020-09-03
서울특별시,동대문구,나사렛어린이집,민간,폐지,02544,서울특별시 동대문구 답십리로23다길 26 (전농동),02-2217-8316,02-2217-6018,7,440,1,10,0,122,0,37.58142443,127.0527536,미운영,,1997-12-19,,,2020-02-29
서울특별시,동대문구,별밭어린이집,국공립,정상,02624,서울특별시 동대문구 답십리로66길 3 (장안동),02-2215-0248,02-2212-0456,5,742,1,8,12,99,68,37.57233065,127.0685453,미운영,,1993-11-27,,,
서울특별시,동대문구,빛나어린이집,민간,정상,02546,서울특별시 동대문구 전농로23길 47 (전농동),02-2212-0406,02-2212-0414,6,346,0,9,13,49,43,37.5791048,127.0538336,운영,,1996-09-25,,,
서울특별시,동대문구,그린어린이집,법인·단체등,정상,02500,서울특별시 동대문구 망우로 82 ,02-2213-7273,02-2213-7276,7,385,1,16,15,70,42,37.58929979,127.0645396,미운영,키즈노트,1998-03-17,,,
서울특별시,동대문구,명문어린이집,민간,폐지,02541,서울특별시 동대문구 사가정로 62 (전농동),02-2217-1222,02-2246-9688,5,174,1,0,0,49,0,37.57412937,127.0532852,운영,,1998-12-14,,,2019-06-27
서울특별시,동대문구,태양하나어린이집,국공립,정상,02592,서울특별시 동대문구 황물로 32 ,02-2245-9544,02-2245-9544,7,570,1,25,13,125,95,37.57399227,127.045324,미운영,,2021-03-01,,,
서울특별시,동대문구,초롱하나어린이집,국공립,정상,02592,서울특별시 동대문구 황물로 34 ,02-2212-6314,02-2242-4867,5,167,1,21,16,57,56,37.57399227,127.045324,미운영,http://cafe.daum.net/e-chorong,2002-03-01,,,
서울특별시,동대문구,해오름어린이집,국공립,정상,02476,서울특별시 동대문구 약령시로5길 22 (제기동),02-929-0081,02-929-0082,8,366,1,11,17,138,57,37.58396475,127.0342209,미운영,,2000-09-01,,,
서울특별시,동대문구,해맑은아이어린이집,민간,폐지,02594,서울특별시 동대문구 답십리로30길 32 (전농동),02-2214-8654,02-2214-0342,5,159,0,0,0,33,0,37.57395145,127.0479679,운영,,2006-07-06,,,2012-11-30
서울특별시,동대문구,사랑아이방과후어린이집,국공립,폐지,02476,서울특별시 동대문구 약령시로5길 22 (제기동),02-920-4541,02-926-3013,2,58,1,1,0,20,0,37.58396475,127.0342209,미운영,http://www.communitycenter.or.kr/,2001-08-03,,,2022-10-01
서울특별시,동대문구,규전어린이집,가정,폐지,02432,서울특별시 동대문구 휘경로 42 (휘경동),02-964-6580,02-964-6570,4,53,0,3,0,20,0,37.59452212,127.0643009,미운영,,2000-02-01,,,2021-12-03
서울특별시,동대문구,한아름어린이집,국공립,정상,02524,서울특별시 동대문구 장안벚꽃로 167 삼성래미안2차아파트단지내 (장안동),02-2245-0105,02-2245-0106,6,228,1,8,17,86,81,37.57389111,127.0752889,미운영,,2005-05-02,,,
서울특별시,동대문구,앙팡어린이집,국공립,정상,02484,서울특별시 동대문구 홍릉로10길 18 (청량리동),02-969-5141,02-969-5142,4,106,0,10,9,30,20,37.58513457,127.044662,미운영,cafe.daum.net/babyhouse2002,2011-09-01,,,
서울특별시,동대문구,딸기어린이집,가정,폐지,02436,"서울특별시 동대문구 망우로 105 104동 101호(휘경동, 휘경미소지움아파트)",02-2213-9045,02-2213-0995,3,58,2,4,0,20,0,37.59154873,127.0648738,미운영,,2004-01-31,,,2020-02-29
서울특별시,동대문구,꾸러기어린이집,민간,폐지,130842,서울 동대문구 장안1동 391-4 ,02-2215-0174,02-2215-2880,0,1,0,0,0,22,0,,,,,1987-03-10,,,2009-11-30
서울특별시,동대문구,아이나무어린이집,가정,폐지,02546,서울특별시 동대문구 전농로17길 51 (전농동),02-2212-0418,02-2246-0418,6,168,1,9,0,20,0,37.57949725,127.0543449,미운영,https://cafe.naver.com/inamookidcare,1994-11-23,,,2021-02-28
서울특별시,동대문구,한신더불어숲어린이집,가정,폐지,02467,"서울특별시 동대문구 고산자로 534 108동 101호(제기동, 한신아파트)",02-959-3898,02-959-3898,3,53,0,4,0,20,0,37.58872123,127.0390668,미운영,,2000-08-16,,,2018-05-30
서울특별시,동대문구,삼성영재어린이집,국공립,폐지,02505,서울특별시 동대문구 전농로 192 삼성아파트 단지내 (전농동),02-2212-1212,02-2246-7946,5,161,0,6,0,45,0,37.5818945,127.0555305,미운영,,2011-09-01,,,2024-08-31
서울특별시,동대문구,코끼리어린이집,민간,폐지,130808,서울 동대문구 답십리4동 24-2번지 ,02-2242-8336,02-2242-8336,0,100,0,0,0,25,0,,,,,2004-03-04,,,2009-11-30
서울특별시,동대문구,이솝어린이집,국공립,정상,02467,"서울특별시 동대문구 고산자로 534 107동 101호(제기동, 한신아파트)",02-959-3434,02-966-5306,4,67,0,5,9,20,20,37.58872123,127.0390668,미운영,,2016-03-01,,,
서울특별시,동대문구,리틀어린이집,민간,폐지,02599,서울특별시 동대문구 전농로 81 2층 (답십리동),02-2214-0222,--,5,188,0,8,0,49,0,37.57228509,127.0573568,운영,,1998-11-16,,,2017-03-14
서울특별시,동대문구,참사랑어린이집,민간,폐지,02540,서울특별시 동대문구 전농로 105 2층 (답십리동),02-2243-2247,02-2243-2247,4,120,0,0,0,28,0,37.57431289,127.0573018,,,1999-11-16,,,2013-09-30
서울특별시,동대문구,한빛어린이집,국공립,정상,02451,서울특별시 동대문구 이문로9길 105-13 (이문동),02-2135-5861,02-2135-5863,3,60,0,16,7,22,17,37.598485672505454,127.05699152673695,미운영,,2020-03-01,,,
서울특별시,동대문구,희망만들기방과후어린이집,국공립,폐지,02583,서울특별시 동대문구 무학로 133 (용두동) 234-40,02-926-5616,02-926-5521,3,228,0,7,0,34,0,37.58222416,127.0291938,미운영,www.bceg.org,2002-12-30,,,2019-06-30
서울특별시,동대문구,경성어린이집,가정,폐지,02406,서울특별시 동대문구 신이문로 3-4 ,02-965-2835,02-960-5347,4,131,0,6,0,20,0,37.60331489,127.0625407,운영,,2002-07-12,,,2023-03-10
서울특별시,동대문구,새싹들세상방과후어린이집,국공립,폐지,02628,서울특별시 동대문구 한천로18길 48 장안종합사회복지관 (장안동),02-2242-7564,02-2243-4979,2,81,1,7,0,26,0,37.56793899,127.0661527,미운영,www.jang-an.or.kr,1999-07-05,,,2020-12-31
서울특별시,동대문구,아이세상어린이집,가정,폐지,02638,"서울특별시 동대문구 장안벚꽃로 107 115동 104호(장안동, 현대홈타운아파트)",02-2249-5624,02-6212-5624,3,70,0,4,0,20,0,37.56966129,127.0746722,미운영,http://cafe.daum.net/22495624,2003-11-13,,,2024-04-12
서울특별시,동대문구,아뜰어린이집,민간,정상,02581,서울특별시 동대문구 안암로 6 대광고등학교내 (신설동),02-924-0235,02-929-0236,5,170,0,8,14,49,42,37.57788303,127.0247205,운영,www.addlepg.com,2006-03-02,,,
서울특별시,동대문구,장안어린이집,국공립,정상,02643,서울특별시 동대문구 천호대로89길 58 (장안동),02-2212-5178,02-2214-9311,9,531,1,16,27,164,132,37.56404124,127.0694828,미운영,http://cafe.daum.net/jangankidhouse ,1981-11-02,,,
서울특별시,동대문구,새성복어린이집,민간,폐지,02581,서울특별시 동대문구 안암로4길 33 (신설동),02-923-4136,--,4,210,0,0,0,49,0,37.57858614,127.0260665,운영,,2001-12-28,,,2013-02-22
서울특별시,동대문구,삼성어린이집,민간,폐지,02623,서울특별시 동대문구 한천로26길 43 (장안동),02-2243-5033,02-2245-4821,6,310,1,16,0,72,0,37.57170388,127.0672207,운영,cafe.daum.net/us1017,1997-10-01,,,2020-12-01
서울특별시,동대문구,아이뜰어린이집,가정,폐지,02533,"서울특별시 동대문구 사가정로 190 13동 101호(전농동, 우성아파트)",02-2215-6395,02-2245-4821,3,78,2,4,0,20,0,37.57727289,127.065358,미운영,jn-ws.ecobee.com,2002-02-15,,,2019-03-04
서울특별시,동대문구,신아어린이집,민간,폐지,02459,서울특별시 동대문구 회기로 128 (회기동),02-963-0448,02-957-4704,6,247,2,8,0,93,0,37.59127618,127.0505985,운영,club.cyworld.com/sina0448,2004-01-31,,,2016-03-09
서울특별시,동대문구,한빛어린이집,민간,폐지,130857,서울 동대문구 전농1동 503-3호 ,02-2214-4038,02-2215-0462,0,1,0,0,0,37,0,,,,,2005-01-12,,,2010-01-18
서울특별시,동대문구,조은어린이집,민간,정상,02613,서울특별시 동대문구 답십리로56길 21-1 두산아파트단지내 조은어린이집,02-2244-4220,02-2248-9303,6,817,2,11,15,120,117,37.56982902,127.0600898,운영,,2001-03-12,,,
서울특별시,동대문구,미소어린이집,가정,폐지,02428,서울특별시 동대문구 외대역동로 84 (이문동),02-967-3509,02-967-3509,3,32,0,0,0,12,0,37.59562273,127.0652667,미운영,,2007-04-17,,,2015-07-23
서울특별시,동대문구,가정어린이집,가정,폐지,02426,서울특별시 동대문구 휘경로19길 39 (이문동),02-963-7677,02-963-7677,3,39,0,3,0,15,0,37.59624655,127.0657605,미운영,,2003-03-07,,,2019-08-23
서울특별시,동대문구,행복한꽃별 꼬마숲 어린이집,민간,폐지,02606,서울특별시 동대문구 답십리로52길 4 답십리제2동,02-2215-8800,02-2215-8800,4,145,0,5,0,34,0,37.572597848409686,127.05846517523871,운영,,2004-07-05,,,2017-12-27
서울특별시,동대문구,연세어린이집,민간,폐지,02527,서울특별시 동대문구 장한로27나길 65 (장안동),02-2245-6390,02-2245-6390,7,210,1,16,0,79,47,37.57607996141363,127.07044041171292,운영,키즈노트,2003-04-17,,,2022-02-28
서울특별시,동대문구,누리어린이집,민간,폐지,02440,서울특별시 동대문구 이문로 88-13 ,02-965-2807,02-965-2807,4,161,0,6,0,39,0,37.59522345,127.0605983,운영,www.nurikids.com,1998-03-25,,,2018-03-01
서울특별시,동대문구,예든어린이집,가정,정상,02639,"서울특별시 동대문구 장한로26다길 84 201동 105호(장안동, 현대홈타운아파트)",02-6414-8600,--,4,65,0,4,7,20,12,37.5688279846394,127.07171946081935,미운영,,2006-03-31,,,
서울특별시,동대문구,반석어린이집,법인·단체등,폐지,02607,서울특별시 동대문구 답십리로58길 17 (답십리동),02-2215-0654,02-2217-4409,4,139,1,5,0,56,0,37.5721214565,127.059796018,운영,http://snbsbansuk.vgk.co.kr,1997-04-08,,,2023-02-28
서울특별시,동대문구,해맑은어린이집,국공립,정상,02514,서울특별시 동대문구 한천로46길 70-9 (장안동),02-2243-0088,02-2243-0116,7,306,1,16,14,91,71,37.58108023180034,127.07233689703648,미운영,,2015-08-01,,,
서울특별시,동대문구,우아세어린이집,국공립,정상,02606,서울특별시 동대문구 답십리로48길 38 답십리2동,02-2216-3355,02-2216-3255,5,157,0,19,14,49,39,37.57114382472408,127.05770314008834,미운영,,2012-01-01,,,
서울특별시,동대문구,혜빛어린이집,민간,폐지,02547,서울특별시 동대문구 사가정로9길 18-1 (전농동),02-2248-9787,02-2135-9787,4,115,0,7,0,35,0,37.57750603,127.0559313,미운영,,2001-04-30,,,2024-11-30
서울특별시,동대문구,푸른나무어린이집,민간,정상,02641,서울특별시 동대문구 장한로14길 81 삼성래미안1차아파트 관리동 1층,02-2215-3373,02-2215-3374,3,126,0,6,7,39,19,37.5659457,127.0727599,미운영,,2004-03-19,,,
서울특별시,동대문구,색동어린이집,민간,폐지,130023,서울 동대문구 전농3동 26-13 ,02-2249-6783,02-2249-6744,0,1,0,0,0,49,0,,,,www.colorchild.net,1996-01-27,,,2010-02-25
서울특별시,동대문구,둥지어린이집,가정,폐지,130010,서울 동대문구 청량리동 203-96호 ,02-962-3551,--,2,20,0,0,0,7,0,,,,,2005-01-29,,,2012-01-25
서울특별시,동대문구,사군자어린이집,민간,정상,02635,서울특별시 동대문구 장한로5길 45 (장안동),02-2246-5801,02-2245-5872,3,90,1,7,7,34,17,37.5650925,127.0638644,운영,,2001-07-27,,,
서울특별시,동대문구,대림늘푸른어린이집,국공립,정상,02610,서울특별시 동대문구 답십리로60길 40 (답십리동),02-2217-7900,--,4,160,1,8,10,60,45,37.57112454,127.0643787,미운영,,2013-01-01,,,
서울특별시,동대문구,장안현대어린이집,민간,정상,02638,서울특별시 동대문구 장안벚꽃로 107 현대홈타운아파트 단지동 (장안동),02-2214-7051,02-2214-7061,6,305,3,8,16,84,80,37.56966129,127.0746722,미운영,,2004-12-10,,,
서울특별시,동대문구,임마누엘어린이집,민간,폐지,02527,서울특별시 동대문구 답십리로65길 86 ,02-2217-5556,02-2217-5557,4,176,0,5,0,39,0,37.57624698,127.0699683,운영,http://cafe.daum.net/-imma,2000-04-08,,,2018-06-01
서울특별시,동대문구,개구쟁이어린이집,가정,폐지,02613,"서울특별시 동대문구 답십리로56길 21 108동 105호(답십리동, 두산아파트)",02-2217-2080,--,3,53,0,4,0,20,0,37.56982902,127.0600898,미운영,,2004-07-28,,,2017-08-31
서울특별시,동대문구,꿀벌어린이집,가정,정상,02524,"서울특별시 동대문구 장안벚꽃로 167 224동 102호(장안동, 장안아파트2단지)",02-2249-3739,02-2249-3739,4,72,0,4,9,20,19,37.57389111,127.0752889,미운영,,2005-03-11,,,
서울특별시,동대문구,YWCA몬테소리어린이집,가정,폐지,02608,서울특별시 동대문구 답십리로 184 한양아파트 상가 내 1층 (답십리동),02-2246-5963,02-2246-5964,4,53,0,0,0,20,0,37.57149532,127.0604651,미운영,http://cafe.naver.com/ywca5963,1990-07-03,,,2018-02-28
서울특별시,동대문구,송림어린이집,가정,정상,02524,"서울특별시 동대문구 장안벚꽃로 167 209동 103호(장안동, 장안아파트2단지)",02-2212-8480,02-2212-8480,3,55,0,4,6,20,15,37.57389111,127.0752889,미운영,,2002-02-02,,,
서울특별시,동대문구,보령어린이집,가정,정상,02407,"서울특별시 동대문구 이문로54길 36 101동 103호(이문동, 이문e편한세상아파트)",02-966-3066,--,3,54,1,4,6,20,13,37.60448057,127.0650075,미운영,,2003-07-05,,,
서울특별시,동대문구,청솔어린이집,가정,폐지,130756,"서울특별시 동대문구 전농로10길 10 101동 102호(답십리동, 청솔우성아파트)",02-2245-7074,--,4,54,0,0,0,20,0,37.57086836,127.0625253,,,2003-07-19,,,2011-11-09
서울특별시,동대문구,미래숲어린이집,가정,폐지,02512,"서울특별시 동대문구 한천로 248 103동 106호(휘경동, 주공아파트)",02-2246-1566,02-2246-1566,4,52,0,0,0,19,0,37.583237,127.0719,미운영,,2000-01-28,,,2017-02-13
서울특별시,동대문구,사랑샘어린이집,가정,정상,02442,"서울특별시 동대문구 이문로12길 3-10 107동 101호(이문동, 삼성래미안아파트2차)",02-964-9951,02-964-9951,4,86,0,4,8,20,19,37.59351274,127.0603039,미운영,,2004-05-18,,,
서울특별시,동대문구,즐거운어린이집,가정,정상,02532,"서울특별시 동대문구 사가정로 148 112동 103호(전농동, SK아파트)",02-2248-9802,02-2246-9802,3,59,0,4,7,18,14,37.57651405,127.0604564,미운영,,2002-12-17,,,
서울특별시,동대문구,햇님어린이집,가정,정상,02532,"서울특별시 동대문구 사가정로 148 105동 101호(전농동, SK아파트)",02-2213-4322,02-2248-1961,4,52,0,4,7,20,20,37.57606866604141,127.05989086985919,미운영,,1992-11-07,,,
서울특별시,동대문구,미주키즈어린이집,가정,정상,02485,"서울특별시 동대문구  홍릉로10길 48 104동 102호(청량리동, 홍릉동부아파트)",02-959-5941,02-959-5941,3,78,0,12,4,20,7,37.58581012787956,127.04601232671374,운영,,2005-07-15,,,
서울특별시,동대문구,꿈쟁이어린이집,가정,정상,02423,"서울특별시 동대문구 한천로58길 47 102동 102호(이문동, 쌍용아파트)",02-964-8213,02-964-8213,3,75,0,4,7,20,20,37.59999669,127.0684984,미운영,club.cyworld.com/jmn8213,2001-02-03,,,
서울특별시,동대문구,별초롱어린이집,국공립,폐지,02638,"서울특별시 동대문구 장안벚꽃로 107 104동 102호(장안동, 현대홈타운아파트)",02-2217-8880,--,3,54,0,4,0,20,0,37.56966129,127.0746722,미운영,,2015-09-01,,,2023-09-01
서울특별시,동대문구,참연세어린이집,민간,폐지,02452,서울특별시 동대문구 회기로25길 20 (회기동),02-968-2610,02-959-0501,3,107,0,0,0,25,0,37.59098739,127.0555946,운영,,1999-08-14,,,2015-04-29
서울특별시,동대문구,규현어린이집,가정,정상,02423,"서울특별시 동대문구 한천로58길 47 103동 102호(이문동, 쌍용아파트)",02-6221-4386,070-8299-4386,4,75,2,4,5,20,7,37.59999669,127.0684984,미운영,,2005-03-11,,,
서울특별시,동대문구,숲속어린이집,민간,폐지,02588,서울특별시 동대문구 무학로26길 5 (용두동),02-929-0357,02-929-0357,5,147,0,7,0,39,0,37.57345221,127.0311258,미운영,,1995-03-11,,,2021-02-28
서울특별시,동대문구,엄마사랑어린이집,가정,폐지,02524,"서울특별시 동대문구 장안벚꽃로 167 216동 102호(장안동, 장안아파트2단지)",02-2247-2789,02-2247-2789,3,54,0,4,0,20,0,37.57389111,127.0752889,미운영,,2005-04-15,,,2018-03-01
서울특별시,동대문구,행복나라어린이집,가정,폐지,02423,"서울특별시 동대문구 한천로58길 47 106동 102호(이문동, 쌍용아파트)",02-968-2680,02-968-2680,3,85,0,3,0,17,0,37.59999669,127.0684984,미운영,,2001-01-30,,,2020-03-04
서울특별시,동대문구,엘림몬테소리어린이집,가정,폐지,02575,"서울특별시 동대문구 왕산로23길 89 101동 101호(제기동, 이수브라운스톤)",02-921-8921,070-4412-5921,3,63,0,4,0,20,0,37.58232117,127.0342104,미운영,키즈노트,2005-04-29,,,2018-09-01
서울특별시,동대문구,꼬꼬마어린이집,가정,정상,02624,서울특별시 동대문구 답십리로68길 52-4 ,02-2213-2020,0504-233-3316,3,54,0,4,8,19,18,37.57036913,127.0684373,미운영,http://club.cyworld.com/RRAlove3,2004-12-30,,,
서울특별시,동대문구,베이비캐슬어린이집,가정,폐지,02485,"서울특별시 동대문구 홍릉로10길 48 103동 106호(청량리동, 동부아파트)",02-959-4252,02-959-4260,4,54,0,4,0,20,0,37.58615891,127.0462046,미운영,,2004-02-28,,,2020-03-31
서울특별시,동대문구,브레인에듀어린이집,가정,정상,02638,"서울특별시 동대문구 장안벚꽃로 107 116동 103호(장안동, 현대홈타운아파트)",02-2241-7879,--,4,74,0,4,9,20,19,37.56966129,127.0746722,미운영,,2004-03-02,,,
서울특별시,동대문구,길터어린이집,가정,정상,02519,서울특별시 동대문구 장한로36길 15 신부 3차 아파트 102호 길터어린이집 (장안동),02-2245-5123,02-2245-5123,2,90,0,4,1,13,0,37.57766942623981,127.07314481954113,미운영,cafe.daum.net/0222455123,2004-06-10,,,
서울특별시,동대문구,천사나라어린이집,가정,정상,02463,"서울특별시 동대문구 제기로 131 106동 103호(청량리동, 청량한2차신아파트)",02-967-0172,02-486-3441,4,54,1,5,8,20,14,37.58799269,127.0492407,미운영,https://angelnara.kidsnote.ac,2005-05-07,,,
서울특별시,동대문구,동화마을어린이집,가정,정상,02496,서울특별시 동대문구 망우로14길 18 2층 동화마을 어린이집,02-2245-5141,02-2212-2162,3,56,0,3,6,12,8,37.58902959,127.0602425,미운영,,1995-07-08,,,
서울특별시,동대문구,사랑스런어린이집,가정,폐지,02487,서울특별시 동대문구 왕산로43길 74 1층 (청량리동),02-967-0415,02-967-0416,3,99,0,4,0,20,0,37.58610928,127.0468654,미운영,,2005-01-29,,,2022-03-29
서울특별시,동대문구,꿈동산어린이집,가정,정상,02532,"서울특별시 동대문구 사가정로 148 103동 103호(전농동, SK아파트)",02-2243-3016,02-2243-3916,4,83,0,5,7,20,14,37.57651405,127.0604564,미운영,전농동꿈동산어린이집,2000-05-04,,,
서울특별시,동대문구,햇빛어린이집,국공립,정상,02533,"서울특별시 동대문구 사가정로 190 16동 108호(전농동, 우성아파트)",02-2242-0089,--,3,43,0,3,7,16,13,37.57727289,127.065358,미운영,,2017-09-01,,,
서울특별시,동대문구,청량리어린이집,국공립,정상,02480,서울특별시 동대문구 홍릉로17길 38 (제기동),02-6080-6404,02-6083-6404,3,45,0,4,5,15,8,37.586190422838,127.04091200526692,미운영,,1992-09-02,,,
서울특별시,동대문구,신나는어린이집,국공립,정상,02427,"서울특별시 동대문구 외대역동로 101 102동 102호(이문동, 중앙하이츠아파트)",02-969-5906,070-4410-5277,4,62,0,4,7,20,20,37.59644915,127.0646052,미운영,,2017-09-01,,,
서울특별시,동대문구,이문뽀뽀뽀어린이집,가정,폐지,02427,서울특별시 동대문구 외대역동로 85 (이문동),02-960-5904,02-960-5904,1,34,0,0,0,13,0,37.59586291,127.0651029,미운영,,2005-01-19,,,2015-09-22
서울특별시,동대문구,사랑해어린이집,가정,정상,02422,"서울특별시 동대문구 한천로58길 139 103동 102호(이문동, 대우아파트)",02-967-5580,02-6214-1010,3,58,0,4,5,20,13,37.60253512,127.0697816,미운영,,2006-06-05,,,
서울특별시,동대문구,반석방과후어린이집,민간,폐지,02607,서울특별시 동대문구 답십리로58길 17 (답십리동),02-2247-0653,02-2217-4409,2,53,0,3,0,20,0,37.5721214565,127.059796018,미운영,,2005-01-03,,,2023-02-28
서울특별시,동대문구,리틀짐랜드어린이집,가정,폐지,02451,서울특별시 동대문구 이문로25길 17 이문로25길17(이문동),02-6082-9709,02-966-2281,4,104,2,0,0,20,0,37.59550116,127.0584738,운영,,2006-01-12,,,2020-12-09
서울특별시,동대문구,사임당어린이집,가정,정상,02512,"서울특별시 동대문구 한천로 248 102동 105호(휘경동, 주공아파트)",02-6403-4345,02-6403-4345,3,62,0,4,7,19,9,37.583237,127.0719,미운영,,2006-08-04,,,
서울특별시,동대문구,무지개방과후어린이집,민간,폐지,02402,서울특별시 동대문구 이문로35길 32 (이문동),02-964-0450,--,2,106,0,0,0,40,0,37.60088158,127.0606642,미운영,,2006-07-01,,,2014-02-28
서울특별시,동대문구,키즈존어린이집,민간,폐지,02642,서울특별시 동대문구 장한로8길 87 (장안동),02-2214-2683,02-2214-2693,9,616,1,17,0,140,0,37.56284673,127.0713472,운영,,1995-10-25,,,2019-02-28
서울특별시,동대문구,경희의료원 어린이집,직장,정상,02454,서울특별시 동대문구 경희대로1나길 56-1 ,02-958-9850,02-958-9851,3,96,0,5,8,36,9,37.59343863,127.0501452,미운영,,1996-05-01,,,
서울특별시,동대문구,은초롱어린이집,가정,폐지,02435,"서울특별시 동대문구 망우로 135 101동 103호(휘경동, 휘경동양1,2차아파트)",02-2243-0011,02-2243-0011,3,59,0,4,0,20,0,37.59238745,127.0675888,미운영,,2006-10-17,,,2020-10-31
서울특별시,동대문구,샛별어린이집,가정,폐지,02451,서울특별시 동대문구 회기로25가길 7 샛별어린이집,02-959-2978,--,3,62,2,4,0,20,0,37.59341711,127.0570133,운영,,2007-02-01,,,2018-12-01
서울특별시,동대문구,하은어린이집,민간,폐지,02523,서울특별시 동대문구 장한로28가길 11 SM해그린아파트 단지동 (장안동),02-2242-6185,02-2244-6185,5,152,0,8,0,49,0,37.57359063765204,127.07246832308489,운영,https://blog.naver.com/haun6185,2006-12-29,,,2024-02-29
서울특별시,동대문구,동아어린이집,민간,정상,02612,서울특별시 동대문구 한천로11길 10-1 동아아파트 단지내 유치원동 (답십리동),02-2242-8337,02-2242-8335,7,331,1,8,18,82,47,37.56927633,127.061745,운영,,2006-11-17,,,
서울특별시,동대문구,동원꿈나무방과후어린이집,민간,폐지,02478,서울특별시 동대문구 정릉천동로 136-1 ,02-967-0806,02-968-3191,3,123,0,0,0,40,0,37.58454409,127.0367541,미운영,,2006-11-28,,,2013-07-02
서울특별시,동대문구,포르테몬테소리어린이집,민간,정상,02642,서울특별시 동대문구 장한로12길 76-1 ,02-2247-1263,02-2213-5583,6,214,1,7,17,80,74,37.56423259,127.0714692,운영,,2006-12-21,,,
서울특별시,동대문구,튼튼어린이집,가정,폐지,02612,"서울특별시 동대문구 한천로11길 10-1 105동 103호(답십리동, 동아아파트)",02-2212-8388,02-2212-8388,3,54,0,0,0,19,0,37.56927633,127.061745,미운영,,2003-04-29,,,2016-04-11
서울특별시,동대문구,대림 어린이집,국공립,정상,02407,"서울특별시 동대문구 한천로63길 10 115동 103호 (이문동, 이편한세상아파트)",02-6212-5414,02-6212-5414,3,52,0,4,8,19,17,37.603361006884924,127.06593176195103,미운영,http://cafe.naver.com/daelim115103,2017-03-01,,,
서울특별시,동대문구,새봄어린이집,가정,폐지,02638,"서울특별시 동대문구 장안벚꽃로 107 111동 102호(장안동, 현대홈타운아파트)",02-2243-4345,02-2243-4345,3,82,1,4,0,20,0,37.56966129,127.0746722,미운영,,2007-01-11,,,2019-05-31
서울특별시,동대문구,두산베베어린이집,가정,폐지,02613,"서울특별시 동대문구 답십리로56길 21 105동 103호(답십리동, 두산아파트)",02-2214-8654,02-2214-8654,2,45,0,5,0,17,0,37.56982902,127.0600898,미운영,,2007-01-31,,,2020-07-01
서울특별시,동대문구,동아개구쟁이어린이집,가정,정상,02612,"서울특별시 동대문구 한천로11길 10-1 104동 103호(답십리동, 동아아파트)",02-2217-1233,02-2217-1233,3,63,0,4,7,20,20,37.56927633,127.061745,미운영,,2007-03-21,,,
서울특별시,동대문구,삼육서울병원직장어린이집,직장,정상,02500,서울특별시 동대문구 망우로 82 ,02-2210-3238,02-2210-3332,3,250,2,8,8,33,10,37.58929979,127.0645396,미운영,,1995-05-11,,,
서울특별시,동대문구,언덕위에 하얀 어린이집,국공립,정상,02474,서울특별시 동대문구 약령시로3길 38 (제기동),02-925-3150,02-929-3150,3,86,0,8,11,20,18,37.58404256,127.0322793,미운영,whitechildcarecenter.kidsnote.ac ,2016-03-01,,,
서울특별시,동대문구,꼬마은빛어린이집,가정,폐지,02410,서울특별시 동대문구 신이문로12길 58 (이문동),02-957-1421,--,2,37,0,4,0,14,0,37.60155508,127.0665084,미운영,,2007-04-01,,,2020-02-29
서울특별시,동대문구,텀블랜드 어린이집,민간,폐지,130839,서울 동대문구 장안2동 324-9 ,02-2214-4417,02-2214-4418,4,234,1,0,0,51,0,,,,,2007-03-20,,,2011-01-18
서울특별시,동대문구,위브어린이집,민간,폐지,02620,서울특별시 동대문구 황물로15길 25 두산위브아파트 내 (답십리동),02-2212-9919,--,3,139,0,5,0,33,0,37.56616803,127.0577089,미운영,,2013-10-01,,,2018-03-01
서울특별시,동대문구,핑구어린이집,가정,폐지,02422,"서울특별시 동대문구 한천로58길 181 201동 102호(이문동, 이문2차푸르지오아파트)",02-969-7090,02-967-7090,3,74,0,4,0,20,0,37.60448495,127.0703519,미운영,,2007-07-16,,,2019-07-01
서울특별시,동대문구,바다의별어린이집,가정,폐지,02512,"서울특별시 동대문구 한천로 248 108동 104호(휘경동, 주공아파트)",02-2212-5096,02-2212-5096,4,52,0,4,0,19,0,37.583237,127.0719,운영,http://cafe.naver.com/qkekdmlquf,2007-07-30,,,2021-12-10
서울특별시,동대문구,한솔어린이집,민간,폐지,02401,서울특별시 동대문구 화랑로32길 194 (이문동),02-959-1155,02-959-5303,4,97,0,7,0,36,0,37.60284058,127.0614753,운영,club.cyworld.com/hansolkid,2007-08-17,,,2020-03-01
서울특별시,동대문구,동그라미어린이집,가정,정상,02632,"서울특별시 동대문구 천호대로77길 63 101동 104호(장안동, 대명이룸아파트)",02-2248-0103,02-2248-0103,3,59,0,4,7,20,20,37.56480972,127.0622934,미운영,,2007-09-12,,,
서울특별시,동대문구,사과나무어린이집,가정,정상,02524,"서울특별시 동대문구 장안벚꽃로 167 205동 102호(장안동, 장안아파트2단지)",02-446-3791,02-446-3791,3,76,0,4,9,20,18,37.57389111,127.0752889,미운영,,2007-10-01,,,
서울특별시,동대문구,현대참사랑어린이집,가정,정상,02521,"서울특별시 동대문구 장안벚꽃로1길 7 1008동 102호(장안동, 장안힐스테이트아파트)",02-2249-6655,02-2249-6655,3,54,0,4,7,20,16,37.576376569201024,127.07454776862283,미운영,,2007-10-01,,,
서울특별시,동대문구,동일행복어린이집,가정,폐지,02511,"서울특별시 동대문구 한천로 300 109동 101호(휘경동, 휘경동동일스위트리버아파트)",02-3394-5647,02-3394-5647,4,51,0,4,0,19,0,37.58741643,127.0688454,미운영,,2007-09-12,,,2019-12-23
서울특별시,동대문구,예나아트어린이집,민간,폐지,02639,서울특별시 동대문구 장한로26다길 77 (장안동),02-2213-1095,02-2213-1096,7,199,1,9,0,75,0,37.56831634,127.0719562,운영,,2008-01-10,,,2018-06-01
서울특별시,동대문구,신성어린이집,가정,폐지,130859,서울 동대문구 전농1동 신성미소지움 103동101호 ,02-6213-4279,02-2212-4279,3,51,1,0,0,18,0,,,,,2007-07-24,,,2011-06-13
서울특별시,동대문구,예지어린이집,민간,정상,02521,서울특별시 동대문구 장안벚꽃로1길 7 힐스테이트 단지내 (장안동),02-3394-6679,02-3394-6679,3,93,0,4,9,33,20,37.576376569201024,127.07454776862283,미운영,,2008-02-28,,,
서울특별시,동대문구,꼬마별어린이집,가정,정상,02644,"서울특별시 동대문구 천호대로89길 33 202동 102호(장안동, 형인허브빌아파트)",02-2245-3600,02-2245-3600,4,64,0,4,7,19,18,37.56336247,127.0677334,미운영,,2008-04-01,,,
서울특별시,동대문구,해리어린이집,가정,정상,02623,"서울특별시 동대문구 답십리로66길 20 101동 101호(장안동, 금강아미움 아파트)",02-2246-2270,02-2246-2270,3,69,1,4,8,20,17,37.57172688,127.0678521,미운영,http://cafe.naver.com/harryharrylover,2008-05-01,,,
서울특별시,동대문구,이편한어린이집,민간,폐지,02407,서울특별시 동대문구 이문로54길 36 이문E편한세상아파트 단지동 (이문동),02-962-3359,--,4,127,1,0,0,35,0,37.60448057,127.0650075,미운영,,2008-05-13,,,2014-09-30
서울특별시,동대문구,우리누리어린이집,직장,정상,02489,서울특별시 동대문구 약령시로 159 (청량리동),02-963-5885,02-963-5887,3,156,0,8,8,39,20,37.5832263,127.0478011,미운영,,2008-05-28,,,
서울특별시,동대문구,지니맘어린이집,가정,정상,02616,서울특별시 동대문구 한천로11다길 86 (답십리동),070-8111-0030,--,4,98,0,9,8,20,19,37.5683665016,127.0590142491,미운영,ka070204,2008-06-23,,,
서울특별시,동대문구,파랑새어린이집,국공립,정상,02638,"서울특별시 동대문구 장안벚꽃로 107 108동 102호(장안동, 현대홈타운아파트)",02-2243-3935,02-2243-3935,3,54,0,4,8,20,17,37.56966129,127.0746722,미운영,,2018-03-01,,,
서울특별시,동대문구,보금자리어린이집,가정,폐지,02461,"서울특별시 동대문구 이문로1길 21 8동 107호(회기동, 신현대아파트)",02-964-0567,02-959-7989,4,51,3,4,0,19,0,37.58955783,127.052047,미운영,,2008-07-01,,,2021-10-18
서울특별시,동대문구,장안현대,민간,폐지,130719,서울 동대문구 장안3동 현대홈타운아파트 현대홈타운 단지내 복지관1층 현대어린이집 ,02-2214-7051,--,0,300,0,0,0,84,0,,,,,2004-12-01,,,2009-10-01
서울특별시,동대문구,보배어린이집,가정,폐지,02512,"서울특별시 동대문구 한천로 248 104동 103호(휘경동, 주공아파트)",02-2217-2337,--,4,54,0,5,0,20,0,37.583237,127.0719,미운영,,2008-08-21,,,2020-02-29
서울특별시,동대문구,산내들어린이집,민간,폐지,02535,서울특별시 동대문구 답십리로59가길 14 (답십리동),02-2244-8131,--,7,432,2,13,0,99,34,37.5738587,127.0660222,운영,,2008-09-04,,,2021-05-18
서울특별시,동대문구,참좋은어린이집,가정,폐지,02512,"서울특별시 동대문구 한천로 248 112동 104호(휘경동, 휘경주공1차공아파트)",02-3394-8231,02-3394-8231,2,51,0,4,0,19,0,37.583237,127.0719,미운영,,2008-09-03,,,2021-06-15
서울특별시,동대문구,뿡뿡어린이집,가정,휴지,02535,"서울특별시 동대문구 답십리로59길 33 106동 105호(답십리동, 우성그린아파트)",02-2212-5596,--,3,33,0,0,0,12,0,37.57479158,127.0659471,미운영,,2008-10-14,2014-03-01,2015-02-28,
서울특별시,동대문구,장한평사임당어린이집,가정,폐지,02644,"서울특별시 동대문구 천호대로89길 30 101동 109호(장안동, 은하수아파트)",02-2214-3790,02-2214-3790,3,53,0,4,0,19,0,37.56304299,127.0689247,미운영,,2008-10-27,,,2018-03-01
서울특별시,동대문구,참소리어린이집,가정,폐지,130717,"서울특별시 동대문구 이문로54길 36 118동 102호(이문2동, 이편안세상아파트)",02-2207-1134,02-2207-1134,3,84,0,4,0,19,0,37.6042350184268,127.06518415255445,미운영,,2008-11-24,,,2018-02-23
서울특별시,동대문구,딸기어린이집,가정,폐지,02524,"서울특별시 동대문구 장안벚꽃로 167 210동 103호 (장안동, 래미안장안2차아파트)",02-3394-6660,02-3394-6660,3,57,0,4,0,19,0,37.57389111,127.0752889,미운영,,2009-02-24,,,2024-09-13
서울특별시,동대문구,아이숲어린이집,가정,정상,02536,"서울특별시 동대문구 전농로10길 20 101동 102호(답십리동, 청솔우성아파트)",02-2212-0567,02-2212-0567,4,67,0,7,7,20,20,37.574435233060385,127.05840236947567,미운영,,2009-02-23,,,
서울특별시,동대문구,한나어린이집,가정,폐지,02467,"서울특별시 동대문구 고산자로 534 111동 104호(제기동, 한신아파트)",02-959-0177,--,3,68,0,4,0,19,0,37.58872123,127.0390668,미운영,,2009-02-23,,,2022-03-14
서울특별시,동대문구,미소가득한어린이집,가정,정상,02516,서울특별시 동대문구 사가정로23길 40 경남하이빌102호 (장안동),02-6012-4345,02-6012-4345,3,84,0,4,5,20,6,37.58044939,127.0701923,미운영,,2009-03-03,,,
서울특별시,동대문구,샘터어린이집,가정,정상,02467,"서울특별시 동대문구 고산자로 534 105동 101호(제기동, 한신아파트)",070-7655-5803,--,3,59,0,4,6,19,15,37.58872123,127.0390668,미운영,,2009-03-01,,,
서울특별시,동대문구,SDA꿈사랑어린이집,가정,폐지,02436,"서울특별시 동대문구 망우로 95 102동 101호(휘경동,  롯데아파트)",02-960-5284,02-960-5284,3,60,2,5,0,19,0,37.59105465638964,127.06376958676264,미운영,http://cafe.naver.com/dlkids,2009-03-10,,,2024-06-05
서울특별시,동대문구,키즈윌어린이집,민간,폐지,02550,서울특별시 동대문구 답십리로23나길 9 (전농동),02-2215-7942,02-962-2215,5,177,2,10,0,61,0,37.58025038,127.0523054,운영, ,2016-09-01,,,2024-09-13
서울특별시,동대문구,자연어린이집,가정,폐지,02535,"서울특별시 동대문구 한천로33길 11 104동 104호(답십리동, 래미안답십리아파트)",02-2213-1566,206--,3,72,0,4,0,20,0,37.57590458,127.0655189,미운영,,2009-03-27,,,2019-03-04
서울특별시,동대문구,아이꿈터어린이집,가정,폐지,02588,서울특별시 동대문구 무학로26길 30 신동아아파트 2동 105호,070-7555-9747,02-2674-0701,3,51,0,4,0,19,0,37.57307216809359,127.03302893668007,미운영,,2003-07-14,,,2021-02-28
서울특별시,동대문구,예닮어린이집,가정,폐지,02588,"서울특별시 동대문구 무학로26길 30 1동 103호(용두동, 신동아아파트)",02-6462-2842,02-3299-2761,3,58,0,4,0,20,0,37.5734957502943,127.032293828838,미운영,,2009-03-27,,,2019-03-04
서울특별시,동대문구,행복어린이집,가정,폐지,02612,"서울특별시 동대문구 한천로11길 10-1 106동 101호(답십리동, 동아아파트)",02-6212-6446,--,4,58,0,4,0,20,0,37.56986019938527,127.0610857668301,미운영,,2009-04-27,,,2018-04-02
서울특별시,동대문구,장안우성어린이집,가정,폐지,02643,"서울특별시 동대문구 장한로12길 40 101동 106호(장안동, 우성3차다소미아파트)",02-2212-7015,02-2212-7015,3,54,0,4,0,19,0,37.56509906,127.0694821,미운영,cafe.daum.net/woosungkid,2009-04-27,,,2021-02-28
서울특별시,동대문구,아이랑어린이집,가정,폐지,02429,"서울특별시 동대문구 한천로55길 9 102동 109호(이문동, 삼익아파트)",02-960-0057,02-960-0087,4,54,0,4,0,20,0,37.59587342,127.0674559,미운영,naver com/ airang2012,2009-04-27,,,2019-03-04
서울특별시,동대문구,더불어숲어린이집,민간,정상,02535,서울특별시 동대문구 한천로33길 11 래미안 엘파인아파트 단지동 (답십리동),02-6253-1004,02-2215-0179,7,171,1,8,9,49,26,37.575934568742355,127.06634907003559,미운영,https://blog.naver.com/together_forest,2009-07-10,,,
서울특별시,동대문구,예랑어린이집,민간,폐지,02600,서울특별시 동대문구 전농로3길 20 (답십리동),02-2212-5478,02-2212-6001,6,282,1,11,0,99,0,37.5688905,127.0562959,운영,,2009-11-12,,,2018-09-10
서울특별시,동대문구,해피트리어린이집,가정,정상,02629,"서울특별시 동대문구 장한로5길 28 301동 106호(장안동, 신일해피트리3차아파트)",02-2244-3533,--,3,63,0,4,5,20,16,37.56488543,127.0650238,미운영,,2009-12-14,,,
서울특별시,동대문구,함께미소짓는어린이집,가정,폐지,02490,"서울특별시 동대문구 약령시로 154 4동 108호(청량리동, 미주아파트)",02-6326-8889,--,3,53,0,0,0,20,0,37.58257096,127.0460919,운영,http://club.cyworld.com/smile8686,2010-10-04,,,2017-02-28
서울특별시,동대문구,경희대학교직장어린이집,직장,정상,02453,서울특별시 동대문구 경희대로 26-6 ,02-961-9326,--,2,66,0,3,7,25,11,37.59621368,127.0548411,미운영,,2010-03-02,,,
서울특별시,동대문구,용두어린이집,가정,폐지,02562,서울특별시 동대문구 고산자로28가길 32 (용두동),02-964-5753,--,3,69,0,4,0,20,0,37.57833623640472,127.04284219155262,미운영,,2010-03-17,,,2017-06-29
서울특별시,동대문구,허브리츠어린이집,민간,폐지,02567,서울특별시 동대문구 정릉천동로 36 래미안허브리츠아파트 관리동1층 (용두동),02-965-0121,02-965-0121,4,119,0,6,0,43,0,37.57525351,127.0358742,미운영,,2010-04-09,,,2018-03-01
서울특별시,동대문구,린여성병원직장어린이집,직장,폐지,02624,서울특별시 동대문구 장한로23길 21 2 층 린 산부인과 직장어린이집,02-2244-6990,02-2244-6991,4,160,1,8,0,49,0,37.5712549,127.0694712,미운영,,2010-12-15,,,2018-02-28
서울특별시,동대문구,청정원직장어린이집,직장,폐지,02586,서울특별시 동대문구 난계로30길 31 (신설동),02-2231-1896,02-2231-1897,5,205,0,6,0,60,0,37.57415805,127.0251461,미운영,,2011-02-23,,,2021-11-30
서울특별시,동대문구,휴사랑어린이집,가정,정상,02593,서울특별시 동대문구 서울시립대로 14 청계한신휴플러스107-104 (답십리동),02-2244-4117,--,3,73,1,4,8,17,17,37.57239233,127.0459184,미운영,,2011-04-04,,,
서울특별시,동대문구,킨더베베어린이집,가정,정상,02502,"서울특별시 동대문구 외대역동로 14 103동 1층 관리동 (휘경동,센트레빌아파트)",070-4100-3708,02-2212-3708,4,61,2,4,5,20,12,37.59101617,127.0683997,미운영,,2013-10-01,,,
서울특별시,동대문구,엔젤솜송이어린이집,가정,폐지,02460,"서울특별시 동대문구 회기로26길 15 105동 103호(회기동, 힐스테이트아파트)",02-960-1971,02-963-1971,3,107,2,3,0,20,0,37.589974632,127.0542260114,미운영,,2011-06-21,,,2021-02-28
서울특별시,동대문구,새하늘어린이집,민간,정상,02491,서울특별시 동대문구 왕산로 312 제칠안식일예수재림교 본부교회,02-967-0006,02-967-0358,5,228,1,8,13,38,29,37.58769139612186,127.05366225466483,운영,,2011-08-10,,,
서울특별시,동대문구,샛별아이어린이집,가정,폐지,02460,서울특별시 동대문구 회기로26길 15 힐스테이트아파트 관리동 (회기동),02-963-0078,02-965-0078,4,50,0,3,0,15,0,37.589974632,127.0542260114,운영,,2011-08-29,,,2020-03-01
서울특별시,동대문구,홀츠앤키즈어린이집,민간,정상,02508,서울특별시 동대문구 전농로16길 51 관리동,02-3394-7206,02-3394-7206,8,255,3,12,13,96,37,37.57833777090646,127.06042901008699,운영,,2012-01-17,,,
서울특별시,동대문구,세빛어린이집,민간,정상,02501,"서울특별시 동대문구 망우로20길 86 104동 1층 (휘경동, 브라운스톤아파트)",02-3394-5569,02-3394-5569,4,88,0,6,11,32,11,37.59042920111883,127.06652045193186,미운영,,2012-02-28,,,
서울특별시,동대문구,빛나는어린이집,가정,폐지,02501,"서울특별시 동대문구 망우로20길 86 105동 103호(휘경동, 브라운스톤아파트)",02-2217-7711,02-2217-7711,3,58,0,4,0,20,0,37.590053436924414,127.06580679546918,미운영,,2012-05-25,,,2022-03-15
서울특별시,동대문구,다사랑어린이집,가정,정상,02638,"서울특별시 동대문구 장안벚꽃로 107 116-106(장안동, 현대홈타운아파트)",02-3390-5550,02-3390-5550,4,85,0,5,7,20,19,37.57105673850968,127.07511297854766,미운영,,2013-09-11,,,
서울특별시,동대문구,예뜰어린이집,국공립,정상,02541,서울특별시 동대문구 답십리로45길 47 ,02-2216-6509,02-2216-6509,5,196,2,24,10,74,38,37.57436724564288,127.05103145301547,미운영,,2013-09-24,,,
서울특별시,동대문구,예송어린이집,국공립,폐지,02411,서울특별시 동대문구 이문로42길 45 ,02-6365-9800,02-959-9807,5,130,0,11,0,40,0,37.60092538965934,127.06473830464074,미운영,,2013-11-01,,,2023-03-31
서울특별시,동대문구,도담크레시티어린이집,가정,폐지,02553,"서울특별시 동대문구 사가정로 65 211동 105호(전농동, 래미안크레시티아파트)",02-2244-9787,02-2244-9787,4,83,0,6,0,20,0,37.57536577711646,127.05049781396435,미운영,http://cafe.daum.net/dodamcrecitikids,2013-11-22,,,2019-04-08
서울특별시,동대문구,애플키즈어린이집,가정,정상,02553,서울특별시 동대문구 사가정로 65 래미안크레시티아파트 110동 101호,02-2246-9936,02-2246-9936,3,60,0,5,6,20,18,37.575506672341795,127.04969642692222,미운영,http://cafe.naver.com/appkids,2013-12-09,,,
서울특별시,동대문구,예성어린이집,가정,정상,02553,"서울특별시 동대문구 사가정로 65 304동 101호 (전농동, 래미안크레시티아파트)",02-6745-8809,0508-904-8809,3,50,0,5,6,17,17,37.575506672341795,127.04969642692222,미운영,,2013-12-09,,,
서울특별시,동대문구,용두동어린이집,민간,정상,02577,서울특별시 동대문구 왕산로17길 14 (용두동),02-921-3119,070-4863-7323,4,289,0,11,13,49,48,37.579434078975815,127.03141794319678,운영,,2014-03-03,,,
서울특별시,동대문구,아이사랑어린이집,가정,정상,02553,"서울특별시 동대문구 사가정로 65 206동 104호 (전농1동, 래미안크레시티)",02-2242-2290,02-2242-2293,4,61,0,6,8,20,19,37.575506672341795,127.04969642692222,미운영,http://cafe.naver.com/ilovekidscaffe,2014-03-05,,,
서울특별시,동대문구,래미안위브어린이집,민간,정상,02598,"서울특별시 동대문구 답십리로 130 2단지 (답십리동,  래미안위브아파트)",02-2244-8881,02-2244-8828,4,331,1,7,13,73,73,37.57285657781719,127.05240240239801,미운영,,2014-10-30,,,
서울특별시,동대문구,솔샘숲어린이집,민간,정상,02598,"서울특별시 동대문구 답십리로 130 1단지 (답십리동, 래미안위브아파트)",02-3394-7724,02-3394-7726,4,335,1,8,14,73,65,37.57285657781719,127.05240240239801,미운영,,2014-10-30,,,
서울특별시,동대문구,휘경스마일어린이집,국공립,정상,02445,서울특별시 동대문구 이문로8길 8-7 ,02-959-6401,02-959-6450,4,163,0,15,10,49,22,37.591486613604616,127.05777793521737,미운영,,2014-11-01,,,
서울특별시,동대문구,새서울어린이집,가정,정상,02623,서울특별시 동대문구 한천로26길 23 (장안동),02-2245-4804,--,3,54,0,4,6,20,14,37.5717210137833,127.06723959579891,미운영,,2014-11-25,,,
서울특별시,동대문구,예은어린이집,가정,정상,02598,"서울특별시 동대문구 답십리로 130 106동 106호 (답십리동, 래미안위브아파트)",02-2212-5673,02-2212-5673,3,55,0,4,9,20,20,37.57285657781719,127.05240240239801,미운영,,2014-12-08,,,
서울특별시,동대문구,하랑어린이집,가정,정상,02598,"서울특별시 동대문구 답십리로 130 107동 106호 (답십리동, 래미안위브아파트)",02-579-1547,02-579-1547,3,55,0,4,5,20,14,37.57285657781719,127.05240240239801,미운영,,2014-12-09,,,
서울특별시,동대문구,꼬마숲아띠어린이집,가정,정상,02598,"서울특별시 동대문구 답십리로 130 309동 105호(답십리동, 래미안위브아파트)",02-6012-5176,--,3,55,0,4,7,20,20,37.57285657781719,127.05240240239801,미운영,,2014-12-10,,,
서울특별시,동대문구,이편한오렌지어린이집,민간,폐지,02407,서울특별시 동대문구 한천로63길 10 관리동,02-966-0906,02-966-0906,3,127,1,6,0,29,0,37.60490472269564,127.06370892925227,미운영,http://cafe.naver.com/0rangekids,2014-12-24,,,2018-03-01
서울특별시,동대문구,꼬마숲어린이집,가정,폐지,02532,"서울특별시 동대문구 사가정로 148 102동 102호 (전농동, 전농SK아파트)",02-454-6065,--,4,60,0,4,0,20,0,37.57665795340026,127.06157017844195,운영,,2015-01-30,,,2020-10-26
서울특별시,동대문구,리치빅스맘어린이집,민간,정상,02577,"서울특별시 동대문구 한빛로 73 103동 101 (용두동, 롯데캐슬리치아파트)",02-6406-2722,--,3,61,1,4,3,23,4,37.579416295498746,127.03051678711465,미운영,,2015-03-20,,,
서울특별시,동대문구,라온어린이집,가정,정상,02590,서울특별시 동대문구 정릉천동로 16 106동 102호 (용두두산위브아파트),010-7723-7257,--,3,65,0,4,7,20,20,37.573468397595676,127.03530501011688,미운영,,2015-04-17,,,
서울특별시,동대문구,행복한어린이집,가정,폐지,02513,서울특별시 동대문구 장안벚꽃로5길 19 102-102,02-6213-1550,02-6214-1550,3,54,0,4,0,19,0,37.582067490696474,127.07415945937431,미운영,,2015-05-08,,,2019-09-06
서울특별시,동대문구,한국국방연구원 직장어린이집,직장,정상,02455,서울특별시 동대문구 회기로 85 800동 (회기동),02-959-2169,02-959-2168,4,193,0,16,12,49,28,37.595037969259295,127.04632147315449,미운영,,2016-02-26,,,
서울특별시,동대문구,꿈둥이어린이집,가정,정상,02638,"서울특별시 동대문구 장안벚꽃로 107 105동 104호 (장안동, 현대홈타운아파트)",02-3394-8300,02-3394-8301,5,84,0,4,8,20,19,37.57072760841874,127.07623216090718,미운영,,2016-05-12,,,
서울특별시,동대문구,아라어린이집,가정,정상,02641,"서울특별시 동대문구 장한로14길 81 106동 104호 (장안동, 삼성래미안1차아파트)",02-6071-0012,02-6071-0012,4,64,0,4,6,20,16,37.5668166823,127.0721793498,미운영,,2016-11-25,,,
서울특별시,동대문구,예지슬어린이집,국공립,정상,02553,"서울특별시 동대문구 사가정로 65 109동 101호(전농동, 래미안크레시티아파트)",02-2246-2226,02-2246-2227,3,85,0,6,8,20,20,37.5755066723,127.0496964269,미운영,,2017-03-01,,,
서울특별시,동대문구,느티나무어린이집,국공립,정상,02553,"서울특별시 동대문구 사가정로 65 201동 101호(전농동,래미안크레시티)",02-2212-3373,02-3394-5688,3,85,0,8,8,20,20,37.57467302815679,127.05075290067874,미운영,,2017-03-01,,,
서울특별시,동대문구,호수어린이집,국공립,정상,02598,"서울특별시 동대문구 답십리로 130 403동 106호(답십리동, 래미안위브)",02-2214-2230,--,3,85,0,4,8,20,20,37.5728565778,127.0524024024,미운영,,2017-03-01,,,
서울특별시,동대문구,꿈동이어린이집,국공립,정상,02598,"서울특별시 동대문구 답십리로 130 108동 106호(답십리동,래미안위브)",02-2249-9520,02-2249-9521,3,85,0,6,8,20,20,37.5728565778,127.0524024024,미운영,,2017-03-01,,,
서울특별시,동대문구,다온어린이집,국공립,정상,02553,"서울특별시 동대문구 사가정로 65 212동 105호(전농동,래미안크레시티)",02-2214-3155,--,3,85,0,4,8,20,19,37.5771492,127.0643595,미운영,,2017-05-01,,,
서울특별시,동대문구,한국외국어대학교어린이집,직장,정상,02449,서울특별시 동대문구 천장산로9길 11 ,02-2173-2518,02-969-2518,3,91,0,8,9,30,19,37.5990516765,127.0570817007,미운영,,2017-06-12,,,
서울특별시,동대문구,아이미소어린이집,국공립,정상,02508,"서울특별시 동대문구 전농로16길 51 107동 104호(전농동,래미안아름숲)",02-2212-2293,--,4,111,0,5,7,20,15,37.5783343868,127.0604394791,미운영,,2017-09-01,,,
서울특별시,동대문구,한울어린이집,국공립,정상,02638,"서울특별시 동대문구 장안벚꽃로 107 102동 101호(장안동,현대홈타운)",02-6457-0087,--,3,53,0,4,9,20,20,37.5710567385,127.0751129785,미운영,,2017-09-01,,,
서울특별시,동대문구,누리보듬어린이집,국공립,정상,02521,"서울특별시 동대문구 장안벚꽃로1길 7 1003동 104호(장안동, 힐스테이트아파트)",02-2212-1256,02-2212-1259,3,85,0,6,7,20,20,37.57647898630614,127.07501540802064,미운영,,2017-09-01,,,
서울특별시,동대문구,다함어린이집,국공립,정상,02553,"서울특별시 동대문구 사가정로 65 (전농동, 래미안크레시티아파트)",02-2249-9636,02-2249-9637,5,272,1,13,9,80,55,37.5771492,127.0643595,미운영,,2018-03-01,,,
서울특별시,동대문구,가온어린이집,국공립,정상,02644,"서울특별시 동대문구 천호대로89길 30 101동 109호(장안동,은하수드림필아파트)",02-2215-3342,--,3,53,0,6,8,20,20,37.5630703724,127.0691152165,미운영,,2018-04-01,,,
서울특별시,동대문구,서울시립대학교직장어린이집,직장,정상,02504,서울특별시 동대문구 서울시립대로 163 서울시립대학교직장어린이집,02-2213-9566,02-2213-9567,5,206,1,25,18,65,48,37.5825764944,127.0599900508,미운영,,2018-03-01,,,
서울특별시,동대문구,허브리츠어린이집,국공립,정상,02567,"서울특별시 동대문구 정릉천동로 36 (용두동,허브리츠) 관리동",02-965-0121,02-966-0121,5,119,0,10,13,43,38,37.5754860712,127.0371126933,미운영,,2018-03-01,,,
서울특별시,동대문구,해솔어린이집,국공립,정상,02512,"서울특별시 동대문구 한천로 248 (휘경동, 휘경주공아파트)",02-6452-7942,--,4,101,0,4,10,26,21,37.58278806196844,127.0716026538277,미운영,,2018-03-01,,,
서울특별시,동대문구,이문현대어린이집,국공립,정상,02422,"서울특별시 동대문구 한천로58길 107 (이문동, 현대아파트)",02-959-1153,02-6451-1154,6,190,1,8,13,65,43,37.60052947012829,127.07014185036956,미운영,,2018-03-01,,,
서울특별시,동대문구,이편한오렌지어린이집,국공립,정상,02407,서울특별시 동대문구 한천로63길 10 ,02-966-0906,02-966-0906,4,78,1,7,10,29,28,37.60458659240054,127.06550250220346,미운영,,2018-03-01,,,
서울특별시,동대문구,위브어린이집,국공립,정상,02620,"서울특별시 동대문구 황물로15길 25 (답십리동,두산위브아파트)",02-2212-9919,--,3,139,0,5,10,33,29,37.566561805,127.0571882,미운영,,2018-03-01,,,
서울특별시,동대문구,솔솔어린이집,국공립,정상,02513,서울특별시 동대문구 장안벚꽃로5길 19 2층(휘경동),02-2249-4924,02-3390-4924,3,134,0,4,10,32,21,37.581479918005904,127.07435813095858,미운영,,2018-04-01,,,
서울특별시,동대문구,솔향기어린이집,국공립,정상,02639,서울특별시 동대문구 장한로26다길 77 ,02-2213-1095,02-2213-1096,5,199,1,16,11,49,34,37.56833136418697,127.07200196671871,미운영,http://cafe.naver.com/solaroma,2018-06-01,,,
서울특별시,동대문구,청솔어린이집,국공립,정상,02536,서울특별시 동대문구 전농로10길 20 (답십리동),02-3394-5026,02-3394-5029,4,118,0,12,10,35,31,37.574605268412014,127.05845768840063,미운영,cheongsol5026@naver.com,2018-09-01,,,
서울특별시,동대문구,청아어린이집,국공립,정상,02597,"서울특별시 동대문구 천호대로55길 11 (답십리동,힐스테이트청계아파트 내)",02-3394-9025,02-3394-9026,3,156,0,8,9,39,33,37.57172496478119,127.04696301284568,미운영,,2018-09-01,,,
서울특별시,동대문구,미드카운티어린이집,국공립,정상,02540,"서울특별시 동대문구 답십리로 141 (답십리동,래미안미드카운티아파트)",02-6713-1410,070-8250-1410,4,139,1,16,15,45,44,37.57451643492074,127.05584264823102,미운영,,2018-11-01,,,
서울특별시,동대문구,노블레스어린이집,국공립,정상,02551,"서울특별시 동대문구 답십리로23길 30 관리동(전농동,롯데캐슬노블레스아파트)",02-6933-7336,070-8224-7336,5,170,0,16,13,45,35,37.578608,127.0507775,미운영,,2018-11-01,,,
서울특별시,동대문구,가람어린이집,국공립,정상,02575,"서울특별시 동대문구 왕산로23길 89 101동 101호(제기동,이수브라운스톤아파트)",02-922-2018,02-922-2019,3,63,0,4,8,20,20,37.5826694964,127.0348112107,미운영,x,2018-10-01,,,
서울특별시,동대문구,파크자이어린이집,국공립,정상,02616,"서울특별시 동대문구 답십리로56길 105 관리동(답십리동,파크자이아파트)",02-3394-7987,02-3394-7984,3,99,0,16,12,30,29,37.5681135,127.0585568,미운영,,2019-03-01,,,
서울특별시,동대문구,아이뜰어린이집,국공립,정상,02533,"서울특별시 동대문구 사가정로 190 13동 101호(전농동,전농우성아파트)",02-2215-6395,02-2216-6395,3,78,0,4,9,20,20,37.576696256850155,127.06572711566107,미운영,,2019-03-01,,,
서울특별시,동대문구,예닮어린이집,국공립,정상,02588,"서울특별시 동대문구 무학로26길 30 1동 103호(용두동,신동아아파트)",02-929-2842,--,3,78,0,4,8,20,20,37.573096094093415,127.0320313717531,미운영,,2019-03-01,,,
서울특별시,동대문구,자연어린이집,국공립,정상,02535,"서울특별시 동대문구 한천로37길 33 104동 104호(답십리동,래미안엘파인아파트)",02-2213-1566,--,3,72,0,4,9,20,20,37.57585882087399,127.06484338665497,미운영,,2019-03-01,,,
서울특별시,동대문구,아이랑어린이집,국공립,정상,02429,"서울특별시 동대문구 한천로55길 9 102동 109호(이문동,이문동삼익아파트)",02-960-0057,02-960-0087,3,115,0,4,8,20,16,37.596066513459924,127.0676521564817,미운영,cafe.naver.com/airang2012,2019-03-01,,,
서울특별시,동대문구,이화어린이집,민간,정상,02639,서울특별시 동대문구 장한로26다길 38 ,02-2212-6717,02-2212-6782,3,82,0,7,8,22,14,37.57000678793594,127.07269973099945,미운영,ew22@hanmail.net,2019-03-01,,,
서울특별시,동대문구,휘경SK뷰어린이집,국공립,정상,02434,"서울특별시 동대문구 휘경로 60 휘경SK뷰아파트, 관리동",02-6949-3393,02-6949-3394,4,110,0,8,11,30,29,37.5935220071109,127.06625145045373,미운영,,2019-07-01,,,
서울특별시,동대문구,아름다운어린이집,가정,폐지,02605,서울특별시 동대문구 황물로7길 21 ,02-2215-6363,--,3,49,0,4,0,14,0,37.568068056576095,127.05478797400337,미운영,https://blog.naver.com/wedbew,2019-09-03,,,2023-09-19
서울특별시,동대문구,데시앙어린이집,국공립,정상,02530,"서울특별시 동대문구 장한로27길 37 관리동(장안동, 더퍼스트데시앙아파트)",02-6053-6601,02-6053-6602,3,163,0,12,10,26,26,37.5730729,127.0695886,미운영,,2019-12-01,,,
서울특별시,동대문구,늘봄어린이집,민간,정상,02437,서울특별시 동대문구 외대역동로1길 60-3 휘경해모로 관리동,02-3390-3094,02-2212-3094,4,94,0,8,8,32,20,37.59111843409087,127.06244488137038,미운영,,2020-06-04,,,
서울특별시,동대문구,삼성어린이집,국공립,정상,02624,서울특별시 동대문구 한천로26길 43 ,02-2243-5033,02-2245-4821,6,310,1,6,15,66,66,37.57124605386097,127.06826077389324,미운영,,2020-12-01,,,
서울특별시,동대문구,청계포레어린이집,국공립,정상,02587,서울특별시 동대문구 무학로 89 (청계포레센트럴아파트),02-6212-0770,--,5,361,1,16,14,74,67,37.5720821,127.0302274,미운영,https://www.instagram.com/chenggye_fore/,2021-12-01,,,
서울특별시,동대문구,연세어린이집,국공립,정상,02527,서울특별시 동대문구 장한로27나길 65 ,02-2245-6390,02-2245-6390,7,210,1,16,16,79,73,37.5760519,127.0704164,미운영,https://blog.naver.com/yonsei6390,2022-03-01,,,
서울특별시,동대문구,엘리니티어린이집,국공립,정상,02578,서울특별시 동대문구 한빛로 49 래미안엘리니티 아파트 105동,02-922-7539,--,3,129,0,11,12,43,33,37.5788505,127.0281176,미운영,,2022-10-01,,,
서울특별시,동대문구,그라시엘어린이집,국공립,정상,02561,서울특별시 동대문구 고산자로32길 78 103동,02-967-1281,--,6,240,1,27,18,81,72,37.57688007922213,127.04323328967399,미운영,,2023-07-01,,,
서울특별시,동대문구,스카이어린이집,국공립,정상,02559,"서울특별시 동대문구 답십리로 27 단지내(전농동, 청량리역롯데캐슬 SKY-L65)",02-957-0123,02-966-8881,6,227,1,16,17,75,74,37.578048607195996,127.04460943701285,미운영,,2023-09-01,,,
서울특별시,동대문구,별초롱어린이집,가정,정상,02638,서울특별시 동대문구 장안벚꽃로 107 104동 102호,02-2217-8880,02-2217-8880,3,72,0,4,8,20,20,37.570264157633716,127.07535725139057,미운영,,2023-09-01,,,
서울특별시,동대문구,해찬어린이집,국공립,정상,02512,서울특별시 동대문구 한천로 248 관리동,02-6451-7942,02-6451-7942,3,85,0,4,9,25,22,37.58322487556084,127.07000532023379,미운영,,2024-03-01,,,
서울특별시,동대문구,예일어린이집,가정,정상,02407,"서울특별시 동대문구 한천로63길 10 106동 104호(이문동, 이문e편한세상 아파트)",02-965-3007,0504-272-1348,3,67,0,4,6,18,16,37.604756181917544,127.06431354689808,미운영,https://cafe.naver.com/1004yeilchildren,2024-07-01,,,
서울특별시,동대문구,신현대어린이집,민간,정상,02461,서울특별시 동대문구 이문로1길 21 신현대아파트 관리소동 1층,02-959-7989,02-959-7989,3,97,0,4,6,21,14,37.58971304808317,127.0528931609072,미운영,,2024-09-01,,,
서울특별시,동대문구,삼성영재어린이집,민간,정상,02505,서울특별시 동대문구 전농로 192 삼성아파트 단지내 (전농동),02-2212-1212,02-2246-7946,5,99,0,6,9,37,19,37.582553474749965,127.05547504344928,미운영,,2024-09-01,,,
서울특별시,동대문구,라그란데슬하어린이집,국공립,정상,02404,서울특별시 동대문구 이문로35길 12 관리동,010-0000-0000,--,6,251,1,0,0,67,0,37.566470,126.977963,,,2025-03-01,,,
서울특별시,동대문구,라그란데꿈별어린이집,국공립,정상,02404,서울특별시 동대문구 이문로35길 12 관리동,010-0000-0000,--,5,180,1,0,0,68,0,37.566470,126.977963,,,2025-03-01,,,
서울특별시,동대문구,라그란데은하수어린이집,국공립,정상,02404,서울특별시 동대문구 이문로35길 12 관리동,010-0000-0000,--,6,249,1,0,0,94,0,37.566470,126.977963,,,2025-03-01,,,